time,vy,px,py,pz,pitch,roll,yaw,wz,vz,wx,wy,ax,ay,az,vx
29.918,8244.544,667898.1,793654.0,629122.5,-0.3116063,2.156513,-2.661439,-2.610001,6400.966,-14.53349,-67.68559,-5.759399,47.54335,-87.47111,6400.966
29.933,8253.823,668242.0,794066.4,629442.6,-0.6304374,-1.176767,1.841015,183.2312,6403.309,189.836,134.4594,288.9409,323.6116,181.1867,6403.309
29.948,8274.658,668586.5,794479.6,629763.1,0.6692284,1.238507,3.037823,299.3198,6417.112,334.0508,282.669,473.8655,509.8035,370.9165,6417.112
29.963,8300.349,668932.1,794894.0,630084.4,-1.014436,-2.582661,2.943817,290.7121,6436.091,363.1072,322.1636,485.4669,517.7991,388.2455,6436.091
29.978,8321.985,669278.8,795309.6,630406.6,0.3036831,0.02798838,2.079844,169.7611,6451.842,265.3305,217.5103,307.334,347.6821,241.8103,6451.842
29.993,8332.125,669626.1,795725.9,630729.4,0.6841857,0.9675284,2.126637,-10.92976,6457.663,65.80637,26.64774,-2.888275,57.896,-8.991058,6457.663
30.008,8327.322,669973.5,796142.4,631052.1,-0.6245702,-0.7746029,0.7365892,-193.9545,6450.388,-148.6778,-172.6101,-309.2612,-250.0232,-281.9941,6450.388
30.023,8309.521,670320.1,796558.4,631374.1,-0.18765,2.009517,2.749607,-320.1315,6431.678,-324.275,-307.7502,-518.5629,-462.05,-466.4226,6431.678
30.038,8285.56,670665.6,796973.3,631695.1,0.01322995,-0.2456805,1.011381,-330.4332,6408.438,-376.9425,-338.2268,-560.0442,-496.3928,-463.1639,6408.438
30.053,8264.526,671009.8,797387.0,632015.1,-0.986307,2.639665,2.850314,-233.6645,6389.275,-254.9758,-243.0572,-390.559,-344.9255,-303.3393,6389.275
30.068,8253.861,671353.1,797799.9,632334.3,0.05804797,1.816645,2.916875,-68.80751,6380.133,-55.48135,-46.84592,-62.19205,-81.67264,-62.36905,6380.133
30.083,8249.777,671696.3,798212.5,632653.3,-1.338801,-1.648964,1.566621,131.1523,6377.014,151.9171,155.4654,269.9924,-81.67264,-62.36905,6377.014
30.098,8251.771,672040.0,798625.1,632972.2,0.3853373,0.4354526,1.902714,284.3824,6380.333,307.1528,274.6816,468.612,161.4012,195.0963,6380.333
30.113,8262.646,672384.8,799037.9,633291.5,-0.9580974,2.207102,-2.971883,346.689,6393.214,326.7374,274.1929,473.4763,273.6352,320.1635,6393.214
30.128,8275.385,672730.7,799451.4,633611.5,-0.01859236,-0.5292289,1.140829,280.5905,6407.802,202.9311,181.7439,282.6103,235.8942,263.3753,6407.802
30.143,8282.643,673077.2,799865.3,633932.3,0.767229,-0.06752472,2.243345,92.49507,6420.971,-1.047989,27.73074,-16.14465,54.42302,263.3753,6420.971
30.158,8279.441,673423.6,800279.4,634253.5,-0.3461371,-2.043444,2.696004,-108.8812,6428.837,-229.5524,-142.4554,-326.1074,-182.4599,51.25128,6428.837
30.173,8270.318,673769.3,800693.1,634575.0,0.8050934,2.083968,-2.547239,-258.138,6431.399,-378.2621,-262.4676,-539.1166,-182.4599,51.25128,6431.399
30.188,8258.907,674113.8,801106.4,634896.5,0.08101166,-1.278264,2.145009,-284.9795,6429.675,-392.8631,-276.1586,-556.3656,-273.9998,-120.2396,6429.675
30.203,8247.97,674457.0,801519.1,635217.9,0.02037197,2.823452,-2.820033,-179.6758,6424.559,-282.6203,-161.9077,-375.7693,-163.4827,-84.40273,6424.559
30.218,8245.074,674799.4,801931.4,635539.1,0.03859688,2.095672,-2.506047,-18.37796,6424.655,-51.49384,13.24554,-50.88101,47.64958,88.27229,6424.655
30.233,8253.284,675141.6,802343.8,635860.6,-0.970965,-1.254586,2.300026,145.8678,6434.017,221.5904,207.0318,322.9379,280.7325,286.2081,6434.017
30.248,8271.256,675484.6,802756.9,636182.7,0.4382006,1.011728,3.019172,250.6228,6451.182,418.4332,342.4088,582.9381,438.126,400.3994,6451.182
30.263,8293.215,675828.9,803171.1,636505.8,-0.9821978,-2.839022,-2.868752,249.6038,6471.202,457.2232,345.222,612.7537,440.2219,400.3994,6471.202
30.278,8311.308,676174.6,803586.2,636829.8,-0.02070848,0.1276823,2.410669,136.802,6488.622,337.1359,222.9275,418.574,283.494,296.3834,6488.622
30.293,8318.744,676521.3,804001.9,637154.4,0.5044856,1.231036,2.296945,-33.70427,6496.312,84.67365,27.34856,91.72672,13.97437,11.23035,6496.312
30.308,8312.078,676868.2,804417.7,637479.2,-0.4571939,-0.7000761,0.7738158,-203.5562,6496.874,-182.6168,-177.5473,-237.0618,-280.6046,11.23035,6496.874
30.323,8292.666,677214.6,804832.8,637803.9,-0.2674995,2.196743,2.725769,-317.3381,6491.018,-352.0133,-337.8869,-473.882,-495.8959,-245.4601,6491.018
30.338,8267.541,677559.9,805246.8,638128.1,0.134601,-0.1490531,1.052682,-318.7331,6478.745,-398.391,-359.2762,-544.7548,-509.1207,-245.4601,6478.745
30.353,8246.6,677903.9,805659.7,638451.8,-0.9928917,3.127997,2.344618,-211.8987,6465.362,-296.1196,-230.4678,-382.6706,-328.5501,-289.8245,6465.362
30.368,8236.94,678247.1,806071.8,638774.6,-0.3160164,2.062694,2.655845,-43.17465,6450.871,-61.4328,-33.91669,-51.67178,-57.82962,-289.8245,6450.871
30.383,8241.188,678590.3,806483.7,639096.9,-0.8983735,-0.6003918,0.437437,155.8666,6441.314,180.6796,197.7596,311.7095,227.6969,-92.43314,6441.314
30.398,8257.338,678934.1,806896.1,639419.0,0.3265066,1.211604,1.920321,294.0403,6441.897,355.2654,359.3472,556.2167,418.307,115.751,6441.897
30.413,8278.999,679279.1,807309.6,639741.3,-1.416202,-2.603945,1.92695,308.362,6449.286,383.8619,371.7485,550.7075,448.1287,179.7725,6449.286
30.433,8297.93,679625.4,807724.0,640063.9,0.3715803,0.2074663,1.018985,222.3424,6458.274,224.5804,263.3611,338.8257,309.0815,179.7725,6458.274
30.448,8307.464,679972.6,808139.1,640387.0,0.5044889,1.355524,2.455306,66.07501,6464.145,29.58725,77.56445,59.61356,72.2851,55.02399,6464.145
30.463,8304.542,680319.8,808554.4,640710.1,-0.2107993,-0.6801688,1.331123,-110.3153,6460.676,-175.0204,-125.4632,-227.9717,-189.1597,-193.7795,6460.676
30.478,8289.096,680666.5,808969.3,641032.8,-0.3564357,2.544211,2.947624,-262.5519,6445.451,-393.0308,-304.8163,-475.7922,-428.687,-415.2013,6445.451
30.493,8267.661,681012.2,809383.2,641354.5,0.3404984,-0.06156307,1.508859,-334.0565,6424.691,-500.2406,-395.6676,-475.7922,-428.687,-415.2013,6424.691
30.508,8245.613,681356.6,809796.0,641675.2,-0.8226357,-2.996988,2.67827,-286.3165,6403.147,-446.8211,-364.6383,-526.8129,-453.2134,-446.5511,6403.147
30.523,8222.952,681699.8,810207.7,641994.8,0.589454,1.237848,2.159464,-119.8644,6380.819,-240.5801,-222.7363,-526.8129,-453.2134,-446.5511,6380.819
30.538,8206.438,682041.8,810618.4,642313.4,-0.6743483,1.932898,1.972287,103.8535,6364.874,47.55365,-14.93964,-265.7959,-207.3471,-191.2724,6364.874
30.553,8196.071,682383.3,811028.5,642631.4,-0.5036632,-0.6037287,-0.01781468,271.936,6355.31,309.1404,185.3002,117.5106,-207.3471,-191.2724,6355.31
30.568,8192.194,682724.9,811438.2,642949.1,0.02272026,1.525813,1.467375,328.8065,6353.076,457.8396,303.2578,352.5024,52.27859,101.8972,6353.076
30.583,8197.769,683067.3,811847.9,643267.0,-1.097706,-1.413464,0.2544209,281.3628,6360.922,437.4918,280.8066,350.71,170.6851,211.9619,6360.922
30.598,8206.303,683410.4,812258.1,643585.3,0.1154377,0.5110837,0.6617308,141.0945,6371.521,249.6581,148.3312,149.8692,170.6851,211.9619,6371.521
30.613,8212.03,683753.8,812668.5,643904.1,-0.07854856,0.2418515,-0.1300144,-47.67058,6378.831,-17.00757,-32.90793,-130.8673,58.43376,80.44337,6378.831
32.013,8199.52,684439.3,813489.2,644542.3,-0.08715495,1.181677,0.8033206,-188.6446,6385.782,-249.3488,-195.1011,-320.048,-183.1719,36.72939,6385.782
32.028,8190.361,684780.9,813898.9,644861.6,-0.5263496,-0.1308708,-0.4121489,-95.98442,6387.618,-157.4805,-107.692,-320.048,-183.1719,36.72939,6387.618
32.043,8182.538,685121.7,814308.3,645181.1,-1.149403,2.157597,1.707561,-146.1738,6389.344,-232.037,-139.4795,-245.7249,-129.7348,32.31511,6389.344
32.058,8172.849,685461.8,814717.1,645500.6,0.03922818,0.754579,0.351404,-235.7455,6390.96,-319.0922,-228.8159,-383.3001,-257.8496,32.31511,6390.96
32.073,8157.587,685800.9,815125.4,645820.1,-1.27848,-0.2171415,-1.389589,-271.571,6388.649,-345.688,-299.1117,-464.2511,-352.5948,-124.7443,6388.649
32.088,8142.144,686138.9,815532.9,646139.3,-0.1881841,1.508396,1.093913,-203.759,6382.412,-274.9974,-246.2724,-400.1363,-265.1321,-124.7443,6382.412
32.103,8134.759,686476.1,815939.8,646458.3,-0.0586265,0.3128139,0.04620299,-68.41725,6376.808,-105.4018,-70.18719,-146.2398,-30.28683,-99.42814,6376.808
32.118,8140.323,686813.0,816346.7,646777.0,-0.1811555,1.604216,1.688836,122.8513,6371.836,130.2649,155.1901,202.9422,252.8719,-99.42814,6371.836
32.133,8160.268,687150.4,816754.2,647095.6,-1.010203,-0.4139414,-0.5513186,321.5447,6372.509,375.9902,349.0485,531.5471,544.9185,126.3446,6372.509
32.148,8191.525,687489.0,817163.0,647414.6,0.09289683,1.134788,1.17316,427.6525,6384.046,519.5466,462.7086,741.0049,705.3671,335.1365,6384.046
32.163,8225.947,687829.3,817573.4,647734.2,-1.481418,0.4203275,-1.793074,405.7888,6400.803,500.0967,469.8263,732.3835,671.4958,335.1365,6400.803
32.178,8254.474,688171.3,817985.4,648054.6,0.1300106,0.6001194,0.5327991,291.395,6416.475,358.1503,359.9434,521.7472,469.5743,291.7223,6416.475
32.193,8270.2,688514.6,818398.6,648375.7,-0.3544004,1.851168,2.129214,105.7122,6425.103,122.5535,162.6939,199.8613,159.4973,53.40733,6425.103
32.208,8270.479,688858.3,818812.1,648697.0,0.1968674,0.3106673,1.146818,-99.00412,6427.773,-141.1772,-69.05154,-155.6174,-148.3088,53.40733,6427.773
32.223,8257.659,689201.8,819225.3,649018.3,-1.361474,-2.242347,1.414935,-247.0546,6424.765,-316.9885,-236.6561,-404.1625,-364.5193,-173.7553,6424.765
32.238,8239.434,689544.3,819637.7,649339.3,0.1990326,1.233134,1.939065,-271.5721,6416.077,-342.4795,-256.9156,-453.8105,-364.5193,-173.7553,6416.077
32.253,8221.509,689885.8,820049.2,649659.9,-0.5415764,-0.4690495,0.5737514,-158.9962,6407.563,-207.0447,-165.7925,-296.9987,-352.4836,-166.7915,6407.563
32.268,8210.008,690226.7,820460.0,649980.1,-0.6969028,-0.4634079,0.9277832,12.742,6399.224,14.26611,-18.03134,-11.6019,-107.5474,-166.7915,6399.224
32.283,8211.161,690567.6,820870.5,650299.9,-0.01323497,0.9840095,2.429786,206.1954,6396.939,235.3971,149.1008,283.7725,153.6643,75.42975,6396.939
32.298,8222.586,690909.1,821281.3,650620.0,-1.506529,0.6008067,-0.9753234,337.1056,6405.51,386.8873,266.4565,493.0333,303.3266,267.412,6405.51
32.313,8238.089,691251.7,821692.8,650940.6,-0.02065811,0.4274365,1.693356,309.1868,6418.881,379.4661,280.0874,502.0194,316.7967,267.412,6418.881
32.328,8250.199,691595.4,822105.0,651261.9,-0.7833747,1.817914,3.123636,183.6115,6431.446,230.4129,150.5801,284.584,167.6234,235.1856,6431.446
32.343,8252.163,691939.8,822517.6,651583.6,-0.4875813,2.273339,2.333148,2.935913,6437.595,-2.348358,-47.86644,-42.31583,-89.06482,10.76633,6437.595
32.358,8241.01,692284.1,822929.9,651905.4,0.299738,0.338894,0.7892025,-185.2263,6432.027,-241.1717,-247.9897,-354.1512,-357.064,-233.4596,6432.027
32.373,8218.81,692627.5,823341.4,652226.6,-1.372629,-3.097572,2.02385,-313.5796,6416.355,-366.7807,-379.0176,-556.0775,-530.9609,-393.4434,6416.355
32.388,8192.904,692969.7,823751.7,652546.9,0.4163185,1.081761,1.568277,-336.578,6396.683,-365.1773,-361.3735,-542.7585,-505.232,-393.4434,6396.683
32.403,8172.383,693310.6,824160.8,652866.3,-0.7281879,-0.6608291,0.07225145,-242.3126,6378.28,-227.7005,-223.0717,-325.6546,-315.6034,-342.6615,6378.28
32.418,8163.891,693650.8,824569.3,653184.8,-1.175321,1.099824,-1.820961,-65.91812,6361.146,2.820557,-34.99503,-19.92847,-24.09564,-342.6615,6361.146
32.433,8169.884,693991.0,824977.6,653502.6,-0.6918166,0.5729513,0.8950695,116.6594,6350.828,233.5591,154.1955,293.0045,263.8494,-70.08551,6350.828
32.448,8187.348,694331.9,825386.6,653820.2,-0.6805721,1.240718,3.088186,228.1346,6353.603,368.6884,293.8076,527.3777,434.7148,181.0945,6353.603
32.463,8209.603,694673.9,825796.5,654138.1,-0.8601383,0.6201511,-0.1195849,235.5936,6364.516,356.8378,313.4737,554.7406,455.4486,255.4043,6364.516
32.478,8228.935,695017.2,826207.4,654456.6,-0.4860284,0.860066,2.087756,164.2262,6375.038,216.6532,190.5623,334.624,317.8327,165.5008,6375.038
32.493,8238.651,695361.2,826619.1,654775.6,-1.017402,0.4400476,2.360522,33.04414,6383.313,-15.15652,-20.53384,-16.76584,70.845,165.5008,6383.313
32.508,8235.42,695705.2,827031.0,655094.8,-0.6319634,1.580427,-0.9073654,-135.8457,6386.367,-252.4761,-225.2337,-346.0174,-200.1149,-43.34714,6386.367
32.523,8220.552,696048.4,827442.4,655413.9,-0.4039228,0.4209943,-2.889477,-259.5998,6379.212,-376.2716,-337.5314,-552.5325,-394.6156,-242.8252,6379.212
32.538,8200.124,696390.3,827852.9,655732.6,-1.013422,1.361756,0.110462,-280.4889,6367.071,-347.0872,-328.0157,-555.6266,-422.4999,-242.8252,6367.071
32.558,8182.791,696731.0,828262.4,656050.7,-0.1845855,0.9914562,-1.98693,-171.1066,6355.88,-209.7802,-217.0114,-356.1531,-270.8193,-204.8125,6355.88
32.573,8174.65,697070.9,828671.4,656368.4,-0.628839,1.026257,-2.739546,-0.9460602,6350.988,-18.99347,-57.87077,-67.83908,-54.83389,9.106689,6350.988
32.588,8177.501,697410.6,829080.2,656685.9,-1.056274,0.567184,-0.1672433,151.5936,6351.443,196.8301,128.6602,250.317,168.8837,9.106689,6351.443
32.603,8191.114,697750.9,829489.4,657003.6,-0.4356805,0.8689217,2.2707,262.3755,6357.086,396.031,310.6892,536.1011,375.629,216.5947,6357.086
32.618,8209.896,698092.4,829899.4,657321.8,-1.036416,1.181899,-1.502717,305.6527,6367.916,465.7522,381.7526,632.6552,375.629,216.5947,6367.916
32.633,8229.357,698435.4,830310.4,657640.4,-0.4674611,0.6259235,1.539449,251.8443,6380.014,367.7931,332.8239,520.3322,402.8582,267.3428,6380.014
32.648,8249.5,698779.6,830722.4,657959.7,-0.3577241,1.43242,-2.952772,100.2192,6389.347,157.4077,186.223,251.3347,402.8582,105.9752,6389.347
32.663,8263.839,699124.3,831135.2,658279.1,0.221931,0.1189345,2.531996,-90.01825,6388.851,-109.2849,-16.30423,-104.9742,170.6946,-125.8362,6388.851
32.678,8272.374,699468.8,831548.6,658598.4,-1.184044,-2.492419,2.921199,-247.266,6382.559,-329.8944,-187.1989,-408.7594,170.6946,-125.8362,6382.559
32.693,8274.783,699812.4,831962.3,658917.3,0.3476784,1.12751,3.133661,-321.2674,6372.378,-432.2947,-298.4991,-584.1115,-74.31097,-281.362,6372.378
32.708,8271.067,700154.6,832375.9,659235.6,-0.8378435,-0.9449357,1.92866,-293.2651,6358.523,-381.7669,-294.9857,-532.4517,-74.31097,-272.8529,6358.523
32.723,8267.794,700495.7,832789.4,659553.3,-0.4150354,1.986056,-2.44835,-164.3553,6349.047,-196.7064,-139.1504,-275.0746,-56.61948,-106.1988,6349.047
32.738,8269.655,700836.1,833202.8,659870.7,-1.130663,1.873876,-1.257673,21.82741,6349.683,58.17926,80.0065,71.94275,131.0741,131.6386,6349.683
32.753,8280.296,701176.8,833616.6,660188.4,-0.3519466,0.3109475,2.427368,197.5007,6361.109,301.1475,276.1788,400.7961,294.5621,325.4207,6361.109
32.768,8296.38,701518.3,834031.0,660506.9,-0.551604,1.66731,-1.915699,285.999,6379.509,398.2249,370.4683,558.8082,348.7789,410.5824,6379.509
32.783,8313.818,701861.0,834446.3,660826.4,-0.7818476,-0.03283052,1.818023,258.0129,6400.039,320.2876,300.7875,464.1008,348.7789,410.5824,6400.039
32.798,8327.476,702204.8,834862.3,661146.9,-0.06050742,0.5749681,-2.836346,146.2999,6417.419,121.1512,104.6533,205.1383,197.519,284.6536,6417.419
32.813,8337.352,702549.1,835278.9,661467.9,-1.076637,-1.017463,-2.821585,-21.86856,6424.354,-135.0157,-103.3794,-108.8403,197.519,-7.266418,6424.354
32.828,8339.278,702893.1,835695.9,661789.0,-0.1494475,1.798048,-1.383566,-186.4768,6417.051,-365.5332,-259.998,-398.4669,-120.4371,-284.8535,6417.051
32.843,8326.713,703236.2,836112.5,662109.4,-0.431156,-0.2290595,-2.94472,-269.6993,6399.561,-466.5362,-362.667,-559.8165,-382.1841,-414.7378,6399.561
32.858,8307.604,703578.0,836528.4,662428.9,-0.6383079,2.378782,-1.108974,-219.4992,6378.824,-397.8634,-329.5479,-559.8165,-382.1841,-414.7378,6378.824
32.873,8289.008,703918.5,836943.3,662747.4,0.2149247,0.9122499,-2.26444,-83.24417,6361.064,-162.1491,-151.98,-422.4622,-361.6502,-295.6637,6361.064
32.888,8277.219,704258.1,837357.4,663065.3,-0.6730551,2.109254,-1.419469,88.11441,6353.257,114.8507,79.63391,-21.5636,-109.9096,-16.62491,6353.257
32.903,8277.523,704597.6,837771.3,663383.1,-0.4719211,-0.3747208,2.829321,250.8892,6359.167,321.2836,255.0273,320.5915,122.097,253.0279,6359.167
32.918,8285.923,704937.8,838185.4,663701.4,-0.09466574,1.602211,-1.864102,305.1957,6374.97,430.9412,316.1816,467.7463,213.8646,379.1021,6374.97
32.933,8295.926,705279.0,838599.9,664020.6,-1.129772,-1.097431,2.892088,244.5328,6392.592,372.9893,259.8448,390.0579,186.269,325.7545,6392.592
32.948,8301.391,705621.1,839014.9,664340.6,-0.06789911,0.2831418,-2.725918,114.0001,6404.45,172.3517,86.75613,116.1603,32.32587,148.5681,6404.45
32.963,8296.341,705963.4,839429.8,664661.0,-1.177317,0.7157744,1.79611,-83.02823,6411.878,-68.89795,-126.7793,-205.2975,-234.3034,148.5681,6411.878
32.978,8278.773,706305.3,839844.2,664981.6,-0.1593439,1.136848,-1.02702,-267.0711,6412.62,-288.3719,-290.2327,-451.5734,-468.3733,-118.8954,6412.62
32.993,8253.621,706646.1,840257.5,665302.0,-0.9020688,0.02271734,-3.02699,-329.5295,6401.909,-413.9337,-370.3516,-582.0891,-537.7115,-309.5344,6401.909
33.008,8229.732,706985.6,840669.6,665621.7,-0.5396183,1.536201,-0.4632721,-275.3123,6386.367,-377.2582,-313.811,-501.9781,-417.8377,-312.1537,6386.367
33.023,8208.841,707323.9,841080.5,665940.6,-0.2730179,0.2400159,-1.869204,-134.7373,6370.759,-196.2182,-117.9339,-219.2583,-417.8377,-312.1537,6370.759
33.038,8195.082,707661.8,841490.6,666258.9,0.4838433,1.140474,-0.6113303,49.44295,6359.87,51.41495,114.2632,142.8147,-132.5242,-123.3869,6359.87
33.053,8188.456,708000.0,841900.2,666576.7,-1.136066,3.01125,0.1479023,196.2555,6353.701,274.5297,296.4551,465.4107,-132.5242,-123.3869,6353.701
33.068,8188.658,708339.3,842309.6,666894.4,0.1937022,0.1694824,-1.342413,270.098,6352.894,377.9761,374.9481,623.3206,140.6062,91.11601,6352.894
33.083,8195.688,708679.9,842719.3,667212.1,-0.4550542,2.220355,0.2845824,243.0633,6357.45,314.5321,306.2371,562.9581,140.6062,91.11601,6357.45
33.098,8203.436,709021.9,843129.3,667530.1,-0.8083523,-1.058027,-1.610585,126.5753,6361.623,139.2056,114.7461,278.0421,169.2796,75.80318,6361.623
33.113,8207.505,709364.4,843539.5,667848.2,-0.5419133,2.940362,-0.09518013,-45.98811,6360.523,-92.0995,-94.7953,-89.47513,-6.498322,-119.773,6360.523
33.128,8202.474,709706.8,843949.8,668165.9,0.735043,0.4896096,-1.176492,-205.8845,6349.965,-300.6879,-276.5769,-385.3461,-194.7538,-302.5759,6349.965
33.143,8190.983,710048.4,844359.6,668483.0,-0.9097674,-2.019325,-1.020856,-275.8809,6333.246,-393.9808,-356.0208,-520.0292,-264.8524,-366.1657,6333.246
33.158,8179.92,710388.8,844768.8,668799.3,0.5063538,1.661001,-0.2735684,-236.9787,6316.915,-341.3298,-274.2334,-431.9143,-177.6817,-287.0873,6316.915
33.173,8176.123,710728.1,845177.7,669114.9,0.1429134,-0.545021,-1.40567,-88.66087,6307.614,-167.9489,-100.8301,-181.9471,25.78842,-84.92957,6307.614
33.188,8177.412,711066.9,845586.5,669430.1,0.9457075,1.496139,0.2770123,91.87798,6303.368,65.87813,107.4084,-181.9471,25.78842,-84.92957,6303.368
33.203,8185.118,711405.4,845995.6,669745.4,-0.7903726,-2.573073,0.05244691,231.2124,6305.844,275.8277,283.1653,123.8462,282.426,183.9979,6305.844
33.218,8203.656,711744.2,846405.3,670061.0,0.726124,-0.06843255,-0.8827354,297.374,6319.841,375.9592,362.0552,342.2598,459.1111,375.8862,6319.841
33.233,8226.022,712083.7,846816.1,670377.5,-0.2657237,2.781499,0.5755925,262.9937,6339.208,340.1435,302.9985,348.2057,435.5399,398.7596,6339.208
33.248,8247.8,712424.1,847227.9,670694.9,-0.1962013,-1.258018,-0.8254778,135.5924,6359.146,179.1736,118.7857,348.2057,435.5399,398.7596,6359.146
33.263,8263.646,712765.1,847640.8,671013.3,-0.445445,-2.665615,0.5164649,-58.36301,6374.332,-65.50688,-94.22833,112.4394,198.2999,208.6916,6374.332
33.278,8273.561,713106.4,848054.2,671332.3,1.233464,1.447716,0.7256004,-243.8452,6384.767,-294.1223,-267.9006,-202.2218,198.2999,208.6916,6384.767
33.293,8277.268,713447.3,848467.9,671651.6,-0.3532742,-1.69133,-0.2605798,-330.1993,6389.146,-406.7794,-376.1546,-381.4453,-50.02573,-33.51495,6389.146
33.309,8270.616,713787.3,848881.6,671970.9,0.6905911,2.431051,1.268605,-351.3062,6383.193,-420.9594,-404.0017,-462.9675,-216.0122,-204.609,6383.193
33.324,8259.815,714126.2,849294.9,672289.8,0.11618,-1.151048,-0.6392455,-351.3062,6372.962,-426.2226,-404.0017,-462.9675,-216.0122,-204.609,6372.962
33.339,8246.314,714463.9,849707.5,672608.1,0.0508563,2.832628,1.115755,-346.7901,6359.973,-401.1038,-366.9003,-480.7253,-324.0396,-314.9593,6359.973
33.354,8231.957,714800.6,850119.4,672925.8,0.9397973,-0.6511891,-0.7816106,-253.0988,6345.639,-267.6506,-237.5097,-362.9874,-250.2454,-258.4041,6345.639
33.369,8224.882,715136.4,850530.9,673242.8,-0.001074374,-1.231092,-1.137732,-70.03224,6337.85,-26.87283,-20.84769,-102.0676,-32.76691,-53.17747,6337.85
33.384,8229.955,715472.0,850942.3,673559.8,1.034615,1.706737,0.1011514,147.6236,6341.813,251.733,190.5362,287.9615,235.6846,211.7235,6341.813
33.399,8247.516,715808.3,851354.2,673877.3,-0.359648,-2.242938,-0.53032,308.5079,6358.416,493.4816,354.8121,613.3516,466.7272,452.3626,6358.416
33.414,8272.586,716146.0,851767.2,674195.9,1.10167,0.2293813,-0.9864639,362.0767,6383.287,590.3821,435.7433,714.8223,536.0884,542.4874,6383.287
33.429,8296.606,716485.4,852181.4,674515.6,-0.2860614,-2.897604,-0.008795277,329.36,6407.52,500.2155,405.6109,622.3071,424.7514,426.8551,6407.52
33.444,8311.338,716826.2,852596.6,674836.6,0.4333355,-0.7159047,-1.34199,184.0337,6428.863,300.0296,238.2693,333.6108,164.499,426.8551,6428.863
33.459,8310.955,717167.8,853012.2,675158.4,0.1084363,-0.07027793,-1.344767,-9.003616,6443.407,44.65778,-21.21494,-42.31332,-179.8007,154.9051,6443.407
33.474,8295.192,717509.3,853427.3,675480.8,-1.160983,3.047424,0.3033992,-166.9903,6451.152,-203.0041,-220.7088,-345.1763,-450.6999,154.9051,6451.152
33.489,8270.114,717850.0,853841.4,675803.3,0.517272,1.016583,-0.3100079,-265.8286,6452.496,-309.7003,-299.546,-496.0635,-552.4133,-101.1573,6452.496
33.504,8244.921,718189.6,854254.3,676125.8,-0.850207,-0.8620224,-1.561536,-244.4181,6445.365,-257.2127,-252.9384,-434.1588,-455.3369,-184.0781,6445.365
33.519,8227.913,718528.3,854666.1,676447.8,-0.5921859,2.161639,0.9047173,-119.1385,6437.978,-80.69641,-102.3789,-181.8775,-224.9875,-111.3891,6437.978
33.534,8223.967,718866.6,855077.4,676769.7,-1.227219,-1.339399,-0.2183953,46.4381,6437.229,171.3133,89.21814,127.7451,67.13635,81.43756,6437.229
33.549,8233.959,719205.1,855488.9,677091.6,0.1981448,0.7348948,0.2951737,201.1865,6441.301,349.4657,271.0291,402.1664,332.5518,81.43756,6441.301
33.564,8253.001,719544.6,855901.1,677413.9,-1.105365,2.450448,1.576372,289.0851,6448.83,398.1436,333.7405,515.9307,429.1351,219.7439,6448.83
33.579,8272.448,719885.2,856314.2,677736.6,-0.1487105,-0.04386247,-0.2502872,245.3665,6458.264,329.6414,247.5087,400.0516,348.7557,157.6011,6458.264
33.594,8284.44,720226.7,856728.1,678059.6,-0.2343724,1.377535,0.9169174,105.8187,6461.764,147.5191,72.53145,129.6086,130.9384,-17.57999,6461.764
33.609,8283.905,720568.5,857142.3,678382.5,-0.3020908,0.7110071,-0.6880264,-73.65001,6455.031,-91.42686,-137.2163,-190.1647,-152.3608,-251.7336,6455.031
33.624,8270.322,720909.9,857556.2,678704.8,-1.039579,0.8377522,2.931605,-249.692,6436.734,-303.5184,-305.7883,-444.7107,-390.9783,-480.1502,6436.734
33.639,8248.728,721250.2,857969.2,679026.0,-0.3677771,1.059925,0.0687256,-315.9335,6410.955,-412.0274,-388.6784,-573.167,-472.7977,-551.0179,6410.955
33.654,8228.234,721589.2,858381.1,679345.9,-0.8577797,0.488659,-2.236141,-269.7538,6386.822,-356.5628,-343.704,-513.4877,-346.9157,-414.3238,6386.822
33.669,8217.165,721927.1,858792.3,679664.8,-0.7039791,1.497838,1.126537,-120.4531,6366.105,-171.6094,-180.0745,-253.5662,-95.87173,-414.3238,6366.105
33.684,8219.369,722264.4,859203.2,679982.8,-1.235774,-0.1489822,-2.572521,82.18256,6352.768,60.23853,49.50856,128.1676,184.0455,-119.1777,6352.768
33.699,8234.158,722602.0,859614.5,680300.4,0.1792824,0.6895957,-0.8425121,236.1812,6354.221,249.852,263.7925,466.0922,407.5003,177.2868,6354.221
33.714,8256.542,722940.6,860026.8,680618.4,-1.008156,2.073431,0.8497066,284.9829,6363.085,336.7175,348.617,571.0547,487.8581,177.2868,6363.085
33.729,8278.803,723280.5,860440.1,680936.8,-0.3084764,0.1249406,-1.498803,227.839,6373.948,312.8929,299.0309,455.9445,402.5811,257.2265,6373.948
33.744,8293.473,723621.4,860854.4,681255.8,-0.01267256,1.476628,-0.02834019,100.9361,6383.54,143.1845,145.5242,216.7518,184.1994,126.4378,6383.54
33.759,8295.238,723962.9,861269.1,681574.9,0.1417269,0.1777321,-1.167253,-79.64888,6384.487,-92.80598,-68.05205,-96.29886,-113.5564,-88.53076,6384.487
33.774,8283.056,724304.1,861683.6,681893.9,-1.363329,-2.947754,-0.1453792,-239.0281,6375.14,-296.2314,-235.233,-373.2081,-373.762,-285.3731,6375.14
33.789,8262.327,724644.5,862097.2,682212.3,0.2195657,1.087699,-0.4629512,-289.4553,6359.531,-396.7112,-315.1328,-520.4155,-455.3811,-338.9548,6359.531
33.804,8242.146,724983.8,862509.8,682529.9,-0.9352513,-0.8225022,-1.53984,-205.4285,6345.182,-342.741,-261.9086,-445.7296,-351.8281,-235.0153,6345.182
33.819,8229.468,725322.0,862921.6,682847.1,-0.7102531,2.470968,0.01127132,-62.37578,6338.591,-157.615,-95.24634,-170.5267,-155.3185,-28.60846,6338.591
33.834,8228.008,725659.9,863333.1,683164.1,-0.6251481,-0.6811715,-2.342191,108.3743,6343.499,88.44359,129.0797,180.832,96.93286,224.9209,6343.499
33.849,8238.873,725998.1,863744.8,683481.7,0.523092,1.464258,-0.7842837,263.0139,6360.211,284.5562,328.0877,452.563,337.6683,443.5692,6360.211
33.864,8258.031,726337.4,864157.2,683800.3,-1.17815,-2.024437,-1.43019,310.5958,6384.468,382.5501,384.8426,546.2171,428.672,526.6853,6384.468
33.879,8277.301,726677.9,864570.6,684120.1,0.4870015,0.4204683,-1.537594,268.1819,6409.037,338.3395,297.4419,447.9012,342.0955,456.0834,6409.037
33.894,8294.405,727019.5,864984.9,684441.0,-0.4752465,2.130924,-0.4069519,143.1186,6426.891,152.0909,107.7746,161.66,342.0955,258.0475,6426.891
33.909,8305.374,727361.4,865399.9,684762.5,0.1006823,1.081391,-1.461222,-45.32166,6432.712,-98.71806,-99.9912,-190.9486,96.63971,-25.17377,6432.712
33.924,8302.671,727702.9,865815.1,685084.1,-0.9463749,-0.3894833,-2.964467,-219.0319,6431.454,-299.8026,-263.0413,-463.092,-204.7523,-25.17377,6431.454
33.939,8288.09,728043.3,866229.8,685405.5,-0.2225696,1.662264,-0.7109931,-315.4258,6424.672,-368.4117,-348.8527,-573.3549,-378.5024,-246.0881,6424.672
33.954,8269.165,728382.4,866643.8,685726.4,-0.271507,0.02333605,-2.619118,-276.2737,6412.368,-299.2836,-321.3539,-489.6428,-378.5024,-246.0881,6412.368
33.969,8252.146,728720.4,867056.8,686046.8,-1.106448,2.187648,0.1748714,-112.4712,6401.268,-120.7522,-180.4887,-230.7157,-302.271,-197.9228,6401.268
33.984,8243.344,729057.9,867469.2,686366.7,-0.9434658,-0.969067,-1.504267,72.36229,6397.429,137.3943,36.71542,114.6443,-49.80023,44.38113,6397.429
33.999,8240.854,729395.6,867881.3,686686.6,0.2319175,0.972256,-0.4764123,228.8996,6399.648,345.6957,240.5962,403.2505,-49.80023,44.38113,6399.648
34.014,8243.334,729734.2,868293.4,687006.8,-1.355154,2.873995,0.2920121,316.364,6405.862,399.6002,325.6717,514.5134,149.0259,204.1729,6405.862
34.029,8251.624,730073.9,868705.8,687327.3,0.1670051,0.1759784,-1.228767,268.4718,6416.071,304.9058,279.8523,403.3043,182.5826,204.1729,6416.071
34.049,8257.924,730414.6,869118.6,687648.3,-0.02078889,1.636819,0.4642843,128.6864,6424.235,100.8728,138.8651,125.3889,69.40646,122.4101,6424.235
34.064,8256.913,730755.6,869531.4,687969.6,0.06739254,0.2388737,-0.08937169,-35.29323,6424.604,-110.5718,-35.18768,-150.2892,-109.8243,-107.6898,6424.604
34.079,8246.922,731096.3,869944.1,688290.5,-1.280373,-2.414381,0.3794101,-191.7111,6413.998,-301.3061,-192.5798,-387.8621,-289.828,-316.5511,6413.998
34.094,8232.431,731436.1,870356.1,688610.8,0.2773599,1.161888,0.6367567,-313.498,6398.17,-424.2348,-312.888,-387.8621,-289.828,-316.5511,6398.17
34.109,8216.381,731774.8,870767.3,688930.3,-0.8236492,-0.8090886,-0.7686241,-338.1035,6380.03,-397.8088,-312.9317,-484.0773,-352.1694,-409.0451,6380.03
34.124,8198.772,732112.5,871177.7,689248.8,-0.3660647,1.787072,1.27429,-234.2302,6359.578,-255.0536,-179.9516,-346.5214,-352.1694,-409.0451,6359.578
34.139,8185.657,732449.4,871587.3,689566.3,0.4344383,1.206767,1.462966,-57.71819,6342.992,-40.32098,18.61372,-55.0134,-172.4433,-254.3798,6342.992
34.154,8184.397,732786.3,871996.6,689883.3,-1.056709,2.906771,2.154717,145.8079,6338.05,207.2193,205.7005,277.5027,122.0351,56.69095,6338.05
34.169,8196.129,733123.7,872406.1,690200.4,0.1761662,-0.01236936,0.6650061,300.7286,6346.921,379.8355,336.2523,499.4092,347.2371,298.1658,6346.921
34.184,8215.466,733462.3,872816.4,690518.2,-0.4546037,2.182755,2.307199,341.8661,6363.753,405.4417,353.0204,519.3982,426.2559,375.0955,6363.753
34.199,8236.778,733802.0,873227.7,690836.8,-0.4557579,-0.6498819,0.3244842,258.4215,6380.12,285.3677,249.012,323.8961,426.2559,279.5751,6380.12
34.214,8253.466,734142.5,873639.9,691156.1,0.4020512,0.2906438,1.287345,97.49329,6388.755,70.38129,52.36264,-0.2302246,241.258,65.84198,6388.755
34.229,8257.694,734482.9,874052.7,691475.6,-1.095774,-1.674272,1.659494,-86.42854,6392.047,-166.4104,-184.8231,-331.9242,-72.10574,65.84198,6392.047
34.244,8248.676,734822.6,874465.4,691795.1,0.4468553,1.748275,2.705604,-245.688,6389.396,-323.0308,-338.4346,-547.5302,-288.6353,-171.8834,6389.396
34.259,8233.19,735161.1,874877.4,692114.3,-0.4102362,-0.6973705,1.090215,-282.781,6377.947,-344.7682,-359.1353,-576.8417,-330.7832,-286.0856,6377.947
34.274,8219.928,735498.2,875288.8,692432.9,-0.3720369,2.442684,2.963202,-204.3689,6365.101,-257.7482,-251.21,-393.1054,-199.7389,-227.7574,6365.101
34.289,8215.331,735834.4,875699.6,692750.9,0.5198761,1.415986,2.661498,-59.08333,6357.919,-72.99738,-49.41403,-49.85953,15.89032,-59.5056,6357.919
34.304,8216.126,736170.6,876110.4,693068.9,-0.939992,3.130892,2.952037,119.5091,6361.006,167.4582,155.013,307.4165,15.89032,182.9758,6361.006
34.319,8222.346,736507.4,876521.4,693387.3,0.2263113,-0.1047762,1.575412,242.8501,6374.576,335.249,301.4626,558.4098,232.8893,359.8253,6374.576
34.334,8236.366,736845.6,876932.8,693706.5,-0.2056826,2.339515,-3.023418,264.4914,6392.782,353.7128,353.4495,589.5836,327.929,368.4146,6392.782
34.349,8251.151,737185.0,877345.0,694026.5,-0.6373419,-0.6838839,1.299509,184.4601,6407.84,244.4897,277.3591,391.4444,263.4806,233.9271,6407.84
34.364,8259.363,737525.4,877757.8,694347.0,0.6115811,-0.09736559,1.097723,22.13863,6413.391,40.02835,99.38208,82.64496,64.9778,-11.89893,6413.391
34.379,8262.612,737865.9,878170.8,694667.6,-0.8555311,-2.006692,1.33462,-158.0594,6412.796,-180.7262,-131.3577,-240.8984,64.9778,-11.89893,6412.796
34.394,8259.932,738205.9,878583.9,694988.1,0.607696,1.758341,2.282411,-271.5979,6405.632,-318.2799,-277.1989,-475.6379,-172.2224,-274.6596,6405.632
34.409,8249.063,738544.9,878996.6,695307.9,-0.2897162,-0.9663503,0.7585829,-279.9704,6389.122,-339.1725,-304.613,-538.462,-262.5015,-385.7699,6389.122
34.424,8238.065,738882.6,879408.8,695626.9,-0.2019758,2.624154,2.593496,-206.3445,6371.451,-226.2313,-241.3843,-392.3884,-177.439,-321.0375,6371.451
34.439,8233.493,739219.2,879820.6,695945.3,1.090093,2.907356,3.136801,-75.1312,6360.351,-0.9539948,-77.23499,-392.3884,-5.459412,-122.9783,6360.351
34.454,8233.22,739555.1,880232.3,696263.1,0.393665,-2.279985,1.869155,100.5737,6354.202,224.0418,120.599,-61.82019,-5.459412,-122.9783,6354.202
34.469,8237.499,739890.8,880644.1,696580.8,1.15963,-1.755303,-0.3202962,229.4046,6353.585,381.2169,266.5223,271.9539,176.6232,98.30789,6353.585
34.484,8248.315,740227.0,881056.2,696898.7,0.5571535,-2.659256,2.597472,236.6744,6360.529,414.6624,288.2552,401.0645,256.0339,179.442,6360.529
34.499,8259.333,740564.1,881468.9,697216.9,0.6864855,-1.661617,0.8219914,152.1393,6367.765,276.2357,198.3767,303.6632,184.6601,110.0116,6367.765
34.514,8268.566,740901.9,881882.1,697535.3,0.7988185,-1.608898,0.1034245,9.931396,6368.774,37.68661,36.64841,65.65628,184.6601,-69.65102,6368.774
34.529,8271.818,741239.9,882295.6,697853.7,0.2888158,-2.447694,1.858091,-144.07,6365.292,-203.623,-171.8213,-219.9083,-54.57399,-69.65102,6365.292
34.544,8262.548,741577.3,882708.9,698171.8,1.160952,-2.226106,-1.636288,-264.9481,6356.757,-365.4866,-337.2779,-432.4158,-316.2308,-271.7417,6356.757
34.559,8245.487,741913.8,883121.6,698489.3,0.3169717,-2.083833,1.125724,-283.3931,6343.17,-394.8063,-343.2141,-460.2916,-366.1918,-271.7417,6343.17
34.574,8230.366,742249.2,883533.5,698806.1,0.8851787,-2.962239,3.028344,-195.5535,6329.676,-282.3991,-225.4725,-293.5316,-238.6431,-268.0287,6329.676
34.589,8224.036,742583.9,883944.9,699122.4,1.399075,-3.110102,-2.300497,-26.8119,6321.682,-77.49332,-39.483,9.625916,-14.5741,-51.7455,6321.682
34.604,8223.308,742918.6,884356.1,699438.4,-0.2835694,-2.904279,2.358169,173.3501,6319.094,137.3943,189.0805,9.625916,-14.5741,-51.7455,6319.094
34.619,8228.26,743253.4,884767.4,699754.4,0.5920184,-0.926421,0.6626563,294.1411,6321.673,322.5491,344.6578,323.0916,212.6654,154.8928,6321.673
34.634,8241.328,743588.9,885179.1,700070.7,0.3339122,2.839731,2.756827,308.5462,6331.676,365.2258,368.5449,472.5831,310.0686,245.2474,6331.676
34.649,8256.832,743925.5,885591.6,700387.6,-0.2342266,-1.478487,0.9853135,214.0246,6343.938,230.2624,273.0515,362.0962,310.0686,245.2474,6343.938
34.664,8269.46,744262.9,886004.8,700705.0,0.6876595,-1.393146,0.2569201,58.46461,6353.461,18.52469,64.02481,74.34375,195.0296,135.6718,6353.461
34.679,8279.212,744600.4,886418.4,701022.8,0.3023423,-2.551557,1.777826,-116.9284,6360.245,-212.6215,-161.5862,-203.324,195.0296,135.6718,6360.245
34.694,8282.754,744937.5,886832.5,701340.9,1.197721,-2.124973,-1.572332,-268.0179,6361.013,-364.3333,-314.5934,-391.7147,-53.33705,-104.9538,6361.013
34.709,8280.087,745273.7,887246.6,701658.8,0.1634401,-2.136871,1.059817,-312.683,6355.766,-377.7352,-353.4555,-410.8949,-53.33705,-104.9538,6355.766
34.724,8275.733,745609.0,887660.4,701976.4,0.9094916,-2.866848,3.113723,-216.5575,6349.268,-263.2905,-267.7473,-238.7355,-120.8023,-154.945,6349.268
34.739,8269.693,745943.8,888074.1,702293.8,0.8932191,-0.8336514,-0.4326517,-29.73233,6346.301,-40.9917,-102.5689,49.96289,-120.8023,36.24436,6346.301
34.754,8268.276,746278.7,888487.5,702611.3,0.5247875,2.48189,1.262409,147.5203,6353.322,214.2732,104.0281,380.2241,64.11783,244.6089,6353.322
34.769,8276.215,746614.5,888901.1,702929.4,-0.1484069,-1.630723,-0.1401582,274.5292,6368.61,402.7951,285.2085,606.8375,253.4397,366.9234,6368.61
34.784,8290.082,746951.7,889315.3,703248.3,1.195364,1.779451,1.121102,303.277,6386.589,427.9209,346.5651,636.3386,301.2499,352.2074,6386.589
34.801,8302.924,747290.4,889730.1,703567.9,-0.3022609,-2.536047,0.5860236,208.9075,6400.596,293.2525,235.0161,434.0298,212.4248,208.0768,6400.596
34.816,8309.393,747630.1,890145.4,703888.3,0.4906648,-1.184963,-0.3349198,98.6769,6411.0,118.3846,70.06674,147.2861,46.30791,208.0768,6411.0
34.831,8311.708,747970.3,890560.9,704208.9,0.8886142,-0.6967087,1.688102,98.6769,6415.176,-83.48097,-97.97144,147.2861,46.30791,-41.04968,6415.176
34.846,8308.396,748310.8,890976.4,704529.4,0.2150937,-1.972663,-2.991684,-35.34276,6406.379,-305.2459,-285.4853,-164.1659,-178.8129,-310.8069,6406.379
34.861,8294.597,748650.8,891391.5,704849.3,1.144847,-2.770739,-0.9278151,-199.7344,6387.349,-422.8722,-394.2231,-457.0092,-373.1339,-450.4228,6387.349
34.876,8274.731,748989.8,891805.8,705168.1,0.3162804,-1.700286,2.530929,-254.1707,6365.277,-403.336,-389.2184,-537.9277,-421.4799,-432.4376,6365.277
34.891,8256.643,749327.6,892219.1,705485.9,0.5744323,-2.912063,-1.934252,-181.7172,6346.964,-271.6949,-252.0114,-396.4617,-302.0938,-300.1006,6346.964
34.906,8247.945,749664.4,892631.7,705803.0,0.7935423,3.069793,-1.310549,-33.67264,6337.849,-49.09344,-18.01929,-109.6331,-45.80457,-64.51117,6337.849
34.921,8245.655,750000.9,893044.0,706119.8,0.6297371,-1.025477,-0.9465404,-33.67264,6334.623,196.2137,-18.01929,-109.6331,-45.80457,-64.51117,6334.623
34.936,8248.616,750337.2,893456.4,706436.6,0.9211123,2.485722,0.463839,117.549,6337.418,357.1973,169.5412,165.1703,164.2534,176.3185,6337.418
34.951,8258.598,750673.8,893869.1,706753.8,0.04210849,-1.962223,-0.6828059,188.8887,6349.086,384.2565,238.5803,285.5856,235.0119,290.3782,6349.086
34.966,8268.973,751011.1,894282.3,707071.6,1.266191,-0.3985309,-1.5728,137.2074,6361.87,277.2708,201.459,229.7038,180.0006,220.9862,6361.87
34.981,8273.688,751348.8,894695.8,707389.8,-0.2369252,2.783666,1.014139,137.2074,6367.826,59.55725,201.459,7.403244,8.634552,17.26103,6367.826
34.996,8274.12,751686.7,895109.5,707708.3,-0.004206551,0.9080355,1.532903,-39.847,6368.689,-169.9999,48.26462,7.403244,8.634552,17.26103,6368.689
35.011,8270.33,752024.4,895523.1,708026.6,-0.665639,-1.074046,0.5505189,-190.5938,6364.831,-318.9551,-101.2356,-247.8857,-160.2377,-171.5903,6364.831
35.026,8261.348,752361.7,895936.4,708344.6,-0.4943812,1.929851,1.963067,-205.6768,6354.933,-343.884,-125.3076,-329.4189,-199.0653,-224.3432,6354.933
35.041,8253.883,752698.3,896349.3,708662.1,0.08606034,-0.02565209,1.220725,-128.8187,6345.988,-237.8793,-40.98947,-190.9763,-99.53631,-133.4266,6345.988
35.056,8253.989,753034.4,896762.0,708979.3,1.332889,-1.895383,-0.3063391,8.433014,6344.079,-38.33008,125.9954,67.8708,103.7933,57.0412,6344.079
35.071,8259.179,753370.5,897174.8,709296.6,0.6983737,-2.021959,-2.42412,8.433014,6346.931,185.1316,125.9954,67.8708,103.7933,57.0412,6346.931
35.086,8269.162,753707.0,897588.0,709614.1,0.9531045,-1.973346,1.322617,144.8192,6354.412,339.3567,274.6283,315.2696,295.5552,242.1887,6354.412
35.101,8285.221,754044.2,898001.9,709932.2,0.593739,-2.340341,-1.558019,197.1574,6367.821,347.6218,319.2153,393.3253,346.7775,294.1959,6367.821
35.116,8300.33,754382.2,898416.5,710250.9,0.6667798,-1.967761,2.554662,150.2729,6380.295,220.6196,216.3415,252.5866,257.5859,204.7482,6380.295
35.131,8307.215,754720.8,898831.7,710570.0,-0.3473311,-2.141352,0.6575873,31.49583,6385.685,21.7363,216.3415,-13.96005,17.80655,10.86609,6385.685
35.146,8300.799,755059.3,899246.9,710889.1,-0.2778637,1.897754,1.729007,-125.9353,6380.094,-183.0895,7.615219,-281.2184,-274.4619,-234.5064,6380.094
35.161,8282.688,755397.1,899661.4,711207.8,0.07198153,-0.3016583,0.3329877,-254.7443,6363.815,-330.2014,-171.4659,-446.521,-449.9647,-416.6434,6363.815
35.176,8260.035,755734.0,900075.0,711525.4,-0.9623544,2.759165,1.819058,-275.3674,6343.188,-327.4168,-227.7567,-453.8838,-456.1673,-408.4262,6343.188
35.191,8241.416,756069.8,900487.6,711842.2,0.7441124,1.062477,0.9626962,-187.4913,6327.623,-176.487,-227.7567,-285.3232,-288.6172,-214.2085,6327.623
35.206,8234.254,756405.0,900899.4,712158.4,0.1397096,0.859884,-0.236726,-14.95467,6323.586,26.46115,-92.1841,20.7746,2.116272,52.76505,6323.586
35.221,8234.359,756740.1,901311.1,712474.7,-0.03391096,2.989494,0.5198982,-14.95467,6326.225,229.0929,107.0301,20.7746,2.116272,52.76505,6326.225
35.236,8240.429,757075.4,901723.0,712791.2,0.1570876,-0.9449629,-0.6880894,170.1385,6334.632,361.0109,207.7857,316.4519,240.6765,283.5529,6334.632
35.251,8254.259,757411.4,902135.4,713108.3,0.4707683,2.007136,0.6834126,228.7804,6351.362,370.8077,204.3955,423.3963,312.5431,385.6401,6351.362
35.266,8267.661,757748.3,902548.4,713426.3,-0.3012746,-2.254674,-0.2803593,165.2826,6368.594,237.0544,90.69853,301.9326,223.5315,303.6146,6368.594
35.281,8274.076,758085.8,902962.0,713745.0,0.7879727,-2.111054,0.2135648,44.07631,6378.16,0.1209412,-77.42714,33.44189,33.062,79.01538,6378.16
35.296,8270.905,758423.4,903375.6,714063.9,0.6805608,-1.843626,2.83494,-115.9268,6376.161,-237.6394,-255.6092,-238.2256,-159.8981,-158.9502,6376.161
35.311,8259.521,758760.6,903788.9,714382.4,0.6659773,-2.407848,-1.12022,-230.1474,6364.104,-399.0361,-367.9418,-422.2934,-295.4996,-323.3141,6364.104
35.326,8244.758,759096.7,904201.5,714700.2,0.9670588,-1.972778,1.886026,-233.0779,6347.201,-417.3498,-337.2956,-444.9321,-295.0172,-352.8458,6347.201
35.341,8233.74,759431.9,904613.4,715017.2,0.7757515,-2.239626,-2.168527,-128.4865,6332.833,-286.9065,-184.5688,-260.2028,-145.6765,-221.8571,6332.833
35.356,8232.418,759766.5,905025.1,715333.7,0.4002379,2.674434,-2.890359,39.75575,6327.643,-68.50052,37.30806,47.60959,92.78271,14.23126,6327.643
35.371,8237.057,760101.0,905436.8,715650.1,0.2186729,-1.917173,2.918356,39.75575,6328.354,174.9543,37.30806,47.60959,92.78271,14.23126,6328.354
35.386,8246.723,760435.8,905848.9,715966.6,1.516368,0.7750935,-3.067148,188.3267,6335.025,346.6085,210.3695,332.1641,293.8766,252.6067,6335.025
35.401,8263.138,760771.4,906261.7,716283.8,0.05084162,-2.735641,-2.737976,259.681,6350.342,375.7395,249.1102,451.3478,362.7321,360.0644,6350.342
35.416,8279.075,761107.9,906675.3,716601.7,0.8434878,-1.322731,2.058573,214.2424,6366.807,270.8082,172.0212,354.1956,274.7675,298.5496,6366.807
35.431,8287.349,761445.3,907089.4,716920.3,0.1687271,2.701736,-1.151584,214.2424,6376.557,74.24808,172.0212,102.5002,56.18427,91.4371,6376.557
35.446,8290.158,761783.0,907503.9,717239.0,-0.3666408,0.9381227,-1.165131,56.15298,6374.625,-162.1124,12.77252,102.5002,56.18427,-168.7034,6374.625
35.461,8287.432,762120.8,907918.3,717557.4,-1.1228,-0.6949829,-2.09503,-110.2585,6361.904,-312.2736,-141.0675,-146.1098,-165.246,-340.1506,6361.904
35.476,8276.763,762458.4,908332.4,717875.1,-0.4379405,1.773817,-0.326112,-152.5679,6344.91,-312.8523,-195.7416,-235.7047,-261.5118,-339.6062,6344.91
35.491,8265.92,762795.5,908746.0,718192.1,-0.4080624,0.2704027,-1.453164,-75.48754,6331.788,-210.1996,-116.5852,-141.1386,-172.2134,-185.2746,6331.788
35.506,8262.693,763132.4,909159.2,718508.6,-1.055592,-2.113261,0.8681868,58.56905,6328.262,-23.40126,-116.5852,110.2119,43.16093,44.23651,6328.262
35.521,8264.852,763469.3,909572.4,718825.0,-0.3864534,-0.01469534,0.6086945,58.56905,6330.474,189.777,59.92874,110.2119,43.16093,44.23651,6330.474
35.536,8271.475,763806.7,909985.8,719141.7,-0.4286384,1.681221,2.075384,193.7328,6338.263,334.0367,202.6012,349.4511,221.7782,267.3513,6338.263
35.557,8284.04,764144.8,910399.7,719459.0,-0.9499694,-0.6009183,0.07212239,239.9572,6353.854,343.886,223.839,393.7209,280.8414,356.2843,6353.854
35.572,8300.325,764483.9,910814.3,719777.2,0.0525392,0.9637345,1.53844,273.6848,6373.218,344.4154,238.1344,424.886,370.574,418.2582,6373.218
35.587,8318.854,764824.2,911229.8,720096.4,-1.422529,1.671443,-2.81048,330.3376,6394.131,395.8051,325.5441,564.2078,370.574,418.2582,6394.131
35.602,8339.515,765165.8,911646.3,720416.6,-0.002454507,0.4659161,0.8326286,323.2581,6416.696,410.6772,369.0965,622.2202,455.8844,484.3681,6416.696
35.617,8360.425,765508.9,912063.8,720738.0,-0.7920403,1.956523,2.51591,250.6828,6439.439,327.3036,287.9783,482.3123,380.5258,425.3483,6439.439
35.632,8374.368,765853.0,912482.1,721060.4,-0.9168259,-0.23277,-0.2375531,96.06859,6455.695,119.4659,116.3378,193.3578,177.2144,224.9072,6455.695
35.647,8376.446,766197.6,912900.9,721383.3,-1.003529,1.724604,2.467759,-102.5116,6459.708,-153.6599,-91.58519,-182.476,-94.09329,-64.40366,6459.708
35.662,8365.156,766541.7,913319.4,721706.0,-0.261111,0.5871081,0.6231136,-277.9131,6449.632,-423.2229,-302.3134,-557.6869,-357.5232,-338.6193,6449.632
35.677,8347.28,766884.5,913737.3,722028.1,-1.312819,1.274726,-2.713875,-386.8037,6432.701,-583.4105,-450.5192,-788.8272,-357.5232,-338.6193,6432.701
35.692,8326.584,767225.5,914154.1,722349.2,-0.1409657,0.929345,1.098499,-395.2059,6413.097,-546.4713,-449.5118,-792.9493,-470.3201,-445.5447,6413.097
35.707,8305.537,767564.6,914569.9,722669.4,-1.010199,-0.03115283,-0.8741867,-301.5184,6393.197,-360.9972,-292.1964,-564.3205,-371.5693,-350.4649,6393.197
35.722,8286.959,767902.3,914984.8,722988.6,-0.9510463,1.106342,2.625448,-106.8542,6375.673,-133.9454,-62.31796,-564.3205,-371.5693,-350.4649,6375.673
35.737,8274.946,768238.7,915398.8,723307.1,-0.2478905,0.3923155,-1.293507,121.6185,6363.917,94.31097,159.2237,-183.8121,-108.9232,-119.764,6363.917
35.752,8275.608,768574.6,915812.6,723625.3,-0.5382681,1.555572,0.7146568,251.4466,6363.573,281.285,300.8461,164.3074,135.4219,105.9976,6363.573
35.767,8282.38,768910.8,916226.5,723943.7,-0.836526,0.02361207,-1.935174,264.4725,6370.544,321.4794,293.7498,282.9155,135.4219,172.8241,6370.544
35.782,8289.135,769247.6,916640.8,724262.4,-0.06006855,0.8981296,-0.1632619,178.1293,6377.091,189.5895,180.2623,193.8091,134.7772,89.05047,6377.091
35.797,8295.874,769584.8,917055.4,724581.3,0.0178551,0.4161794,0.1468319,13.71933,6376.769,-32.30034,17.33983,-27.06013,134.7772,-101.9405,6376.769
35.812,8297.201,769921.9,917470.3,724899.8,-1.273318,-1.769896,0.1043089,-146.1003,6366.409,-267.6853,-171.5481,-277.1259,-81.69043,-312.4367,6366.409
35.827,8287.463,770258.4,917884.9,725217.7,0.1908923,1.404801,0.9844433,-271.1138,6347.851,-386.9677,-305.5701,-438.5059,-307.8544,-429.9046,6347.851
35.842,8272.07,770593.9,918298.9,725534.6,-0.6069064,-0.4864239,-0.6995523,-307.166,6326.355,-334.5615,-316.1233,-424.2581,-307.8544,-429.9046,6326.355
35.857,8257.245,770928.5,918712.1,725850.4,-0.5243905,2.010437,1.681002,-209.3525,6307.554,-191.7165,-207.7464,-228.9003,-285.168,-322.1562,6307.554
35.872,8242.986,771262.5,919124.6,726165.4,-0.05668617,2.103898,1.682589,-28.15791,6291.446,6.266418,-14.77013,61.21271,-285.168,-322.1562,6291.446
35.887,8235.368,771596.7,919536.6,726479.8,-0.8964523,-1.133275,0.1211602,157.6971,6282.469,238.6,206.6678,400.3536,-19.56273,-36.92093,6282.469
35.902,8234.39,771931.8,919948.3,726793.9,0.5254642,1.087592,1.065849,273.2657,6280.623,380.9943,338.813,606.5515,-19.56273,-36.92093,6280.623
35.917,8237.823,772268.3,920360.1,727108.0,-1.045426,-2.824361,1.346397,259.504,6283.258,384.3818,322.3812,589.0424,156.9203,142.3453,6283.258
35.932,8244.644,772606.2,920772.2,727422.3,0.02512504,0.03309716,0.3208222,141.0172,6289.534,275.0078,193.8366,402.2979,115.8847,108.6762,6289.534
35.947,8250.438,772945.0,921184.6,727736.9,-0.06573242,0.77578,-0.003522525,-18.95514,6294.967,51.41104,-15.17982,77.51437,115.8847,108.6762,6294.967
35.962,8251.557,773284.0,921597.1,728051.8,-1.067156,0.2821879,-1.99722,-182.0168,6296.299,-209.7366,-220.8308,-248.867,-71.13352,-55.38734,6296.299
35.977,8243.35,773622.4,922009.5,728366.4,-0.4149655,1.285674,0.8951272,-298.5931,6289.382,-392.1656,-331.9649,-450.8446,-257.1418,-221.2909,6289.382
35.992,8229.948,773959.9,922421.3,728680.6,-0.7182097,0.09549798,-1.049752,-303.2158,6277.765,-426.3235,-319.809,-465.5682,-278.9079,-243.4094,6277.765
36.007,8216.003,774296.3,922832.4,728994.1,-0.9459898,1.493499,1.702099,-199.724,6265.594,-283.4086,-190.2838,-273.8733,-278.9079,-243.4094,6265.594
36.022,8207.446,774632.0,923243.0,729307.3,-0.6530628,1.216522,1.342164,-23.52634,6258.586,-36.84323,-12.84085,22.80109,-63.37312,-36.91528,6258.586
36.037,8212.444,774967.9,923653.5,729620.3,-1.022209,0.525108,-2.155155,145.5481,6264.643,203.8735,156.4735,341.376,263.3041,279.1999,6264.643
36.052,8230.752,775304.5,924064.6,729934.0,-0.453793,0.8139582,0.2578737,258.1373,6283.581,361.0109,272.8262,538.3556,468.9988,478.2919,6283.581
36.067,8254.202,775642.3,924476.7,730248.8,-1.035782,0.9077703,2.823519,288.0406,6307.495,365.7706,266.0803,494.8688,468.9988,478.2919,6307.495
36.082,8276.51,775981.3,924889.9,730564.7,-0.5513694,0.2569616,-0.6235271,204.0288,6330.135,226.5056,150.3159,258.6747,423.3044,427.3076,6330.135
36.097,8291.091,776320.8,925304.1,730881.6,-0.9760897,-0.5312116,0.4997249,52.52345,6345.297,3.300842,-33.76797,-74.05945,159.9342,179.184,6345.297
36.112,8291.605,776660.1,925718.7,731198.9,-0.2727481,2.192164,2.422771,-113.1106,6347.345,-233.1514,-232.806,-368.9302,-139.329,-97.29178,6347.345
36.127,8284.639,776998.6,926133.1,731516.1,0.01007593,-0.00816527,0.8197384,-242.324,6342.48,-383.1827,-342.616,-540.2581,-139.329,-97.29178,6342.48
36.142,8273.906,777335.9,926547.0,731833.1,-0.9919744,2.736479,2.491603,-264.0257,6334.467,-379.2014,-337.371,-550.4097,-289.9839,-223.2066,6334.467
36.157,8261.166,777671.9,926960.4,732149.6,0.4465831,0.9627941,1.627493,-179.7921,6325.146,-232.6855,-213.942,-360.7117,-219.6396,-149.6279,6325.146
36.172,8250.184,778007.1,927373.2,732465.8,0.7783103,1.066827,1.628279,-18.96086,6321.761,6.911224,11.83292,-25.8266,-219.6396,14.19011,6321.761
36.187,8245.169,778342.2,927785.6,732782.0,-0.7488235,-3.079492,2.122484,170.6345,6327.747,239.7665,221.4231,298.1549,19.03839,225.2653,6327.747
36.202,8251.696,778678.0,928198.0,733098.8,0.3997895,-0.2834284,0.7062098,290.2673,6342.576,367.5044,356.7852,516.7829,242.039,367.8873,6342.576
36.217,8264.987,779015.0,928610.9,733416.3,-0.09432779,2.5194,2.501573,289.1025,6360.385,350.3124,382.1989,554.6544,289.5908,344.4746,6360.385
36.232,8277.153,779353.3,929024.5,733734.7,-0.5045263,-0.9582957,0.6218286,186.5341,6373.751,213.0385,252.758,363.6224,197.0349,190.1824,6373.751
36.247,8287.005,779692.5,929438.6,734053.6,0.1065675,-0.9024637,0.557255,31.08432,6383.26,2.829987,28.68521,363.6224,197.0349,190.1824,6383.26
36.262,8290.682,780032.4,929853.1,734372.9,-0.3338535,-3.137607,2.033135,-151.0554,6386.009,-213.38,-184.3467,29.58081,-49.94832,-80.2287,6386.009
36.277,8281.547,780372.5,930267.4,734692.1,1.035706,0.1286147,0.8163774,-272.8714,6381.998,-351.9612,-322.4274,-279.0538,-315.437,-80.2287,6381.998
36.292,8264.294,780711.9,930681.0,735010.9,-0.5994194,-2.171043,1.279885,-287.2288,6373.213,-369.3479,-330.6179,-412.6792,-374.6696,-271.1863,6373.213
36.308,8245.561,781050.5,931093.8,735329.3,0.7579338,2.089163,2.204289,-183.3251,6359.654,-239.1102,-213.1833,-313.5792,-374.6696,-271.1863,6359.654
36.323,8230.824,781388.4,931505.7,735646.9,1.094674,0.7657063,1.190143,-27.0992,6347.887,-32.4162,-38.8821,-65.15186,-214.7653,-199.4896,6347.887
36.338,8220.086,781725.9,931916.9,735964.1,0.6189068,-0.3116071,0.4325539,-27.0992,6337.912,-32.4162,-38.8821,-65.15186,-214.7653,-199.4896,6337.912
36.353,8215.077,782063.5,932327.8,736280.8,0.4806236,2.433514,1.963201,89.08372,6332.184,170.254,131.9075,187.2635,14.4061,-29.63527,6332.184
36.368,8219.168,782401.4,932738.7,736597.4,-0.3409237,-1.735561,0.8371302,147.2301,6333.005,265.2852,191.0272,277.0552,149.2254,62.48744,6333.005
36.383,8225.868,782739.9,933149.8,736914.1,0.8973892,0.1846709,0.6942243,105.6074,6334.672,200.6328,136.8041,167.2023,118.7647,4.197348,6334.672
36.398,8228.122,783078.8,933561.2,737230.8,0.9226338,0.8282139,0.6583144,-2.2257,6331.028,46.55803,0.803833,-71.46956,-28.61794,-149.9499,6331.028
36.413,8221.685,783417.4,933972.4,737547.0,-0.6086301,-0.9760245,-0.2724525,-143.1004,6318.858,-135.5485,-171.5907,-333.9221,-228.8796,-336.8393,6318.858
36.428,8206.345,783755.3,934383.1,737862.4,-0.06823087,2.22403,1.527986,-241.5936,6298.375,-283.9714,-272.1454,-483.6994,-384.729,-482.5059,6298.375
36.443,8186.836,784092.0,934792.9,738176.8,0.1734584,-0.2326544,-0.09126517,-232.279,6274.692,-317.1264,-281.6587,-488.0344,-395.6029,-464.7963,6274.692
36.458,8171.007,784427.6,935201.9,738490.0,-0.9344911,-2.814081,1.10639,-138.006,6255.983,-208.1449,-183.2415,-332.2081,-237.5608,-283.5901,6255.983
36.473,8159.129,784762.3,935610.1,738802.6,-0.3199806,1.850409,-2.984515,-138.006,6248.563,8.816071,41.51361,-332.2081,-237.5608,-13.23074,6248.563
36.488,8154.639,785096.4,936018.0,739115.3,-1.331732,0.8813978,0.1728036,53.20502,6255.44,259.1711,263.4527,14.54437,57.95587,288.3301,6255.44
36.503,8164.626,785430.6,936426.0,739428.5,-0.2043262,0.7876041,2.880449,241.2766,6275.301,417.7516,373.1489,351.0936,341.5341,506.1131,6275.301
36.518,8184.65,785765.4,936834.8,739742.9,-1.089571,1.49122,-1.205512,314.7247,6301.501,428.5472,374.4495,455.8758,459.4123,541.8993,6301.501
36.533,8205.793,786101.3,937244.5,740058.6,-0.4058444,0.3123098,2.218256,245.9755,6325.405,319.6827,272.7228,345.748,386.3171,414.2789,6325.405
36.548,8219.845,786437.9,937655.1,740375.3,-0.3399921,1.156443,-2.727377,88.04785,6340.083,112.8873,86.94189,87.21408,175.7481,172.8182,6340.083
36.563,8221.772,786774.9,938066.2,740692.3,-0.5718059,0.4326331,2.011537,-90.94263,6341.302,-129.1304,-120.9403,87.21408,-98.64761,-124.0291,6341.302
36.578,8211.273,787112.0,938477.0,741009.1,-0.8582203,1.266826,-1.111338,-242.0285,6329.056,-289.7897,-276.343,-182.6812,-321.296,-365.8064,6329.056
36.593,8194.255,787448.7,938887.1,741325.0,-0.3538451,0.7692786,2.84229,-264.8108,6309.371,-331.5448,-325.7827,-302.6732,-359.4571,-421.5956,6309.371
36.608,8179.623,787784.8,939296.5,741640.0,-1.080497,0.9909605,0.2595646,-157.8027,6291.781,-245.0603,-253.8435,-213.2036,-225.8237,-282.002,6291.781
36.623,8174.292,788120.3,939705.4,741954.4,0.2282191,1.195131,-1.3764,-157.8027,6283.729,-57.22495,-93.21632,-213.2036,12.58624,-40.09671,6283.729
36.638,8181.998,788455.4,940114.3,742268.7,-0.4533148,2.790191,-0.4226182,20.46997,6288.143,154.5674,130.8355,88.12138,295.6575,216.6513,6288.143
36.653,8196.781,788790.6,940523.8,742583.4,-0.6735389,-8.986996e-05,-2.187233,20.46997,6298.976,312.8558,295.3257,88.12138,295.6575,216.6513,6298.976
36.668,8215.376,789126.1,940934.1,742898.7,-0.108967,1.714364,-0.6675338,136.9853,6313.369,362.1107,318.1605,309.7863,448.121,359.077,6313.369
36.683,8236.071,789462.3,941345.4,743214.8,-1.380149,-0.4772434,-2.742105,136.9853,6329.679,253.5426,246.4473,245.3329,379.7006,293.3172,6329.679
36.698,8248.926,789798.9,941757.6,743531.5,-0.1151675,-0.2345031,-2.165911,70.36586,6339.632,51.12906,82.17586,26.59035,134.4919,104.8022,6339.632
36.713,8255.65,790135.8,942170.2,743848.6,-0.9001876,-2.736009,-1.010643,-74.94378,6344.872,-175.2377,-135.2997,26.59035,134.4919,104.8022,6344.872
36.728,8255.479,790472.5,942582.9,744165.9,0.5303972,1.214819,-1.384352,-159.5994,6345.051,-355.7316,-303.2414,-223.1573,-141.3099,-97.65652,6345.051
36.743,8245.562,790808.8,942995.4,744482.9,-0.8471777,-1.140101,-1.996861,-153.8596,6337.415,-390.7657,-345.2102,-325.8371,-255.4077,-207.7936,6337.415
36.758,8234.631,791144.4,943407.4,744799.6,0.1362852,2.383928,-0.79463,-82.10911,6327.846,-272.1104,-251.6085,-213.6715,-181.8315,-174.9333,6327.846
36.773,8225.539,791479.4,943818.9,745115.8,1.331516,1.383627,-1.204393,-82.10911,6319.1,-46.17084,-53.86974,-213.6715,-181.8315,-174.9333,6319.1
36.788,8222.146,791814.1,944230.1,745431.6,0.0516677,-2.742389,-0.8952785,80.52721,6315.079,188.5709,154.2789,78.65887,46.14485,14.08827,6315.079
36.803,8230.538,792149.0,944641.4,745747.6,0.7682555,-1.310608,-2.674472,282.2839,6321.361,342.2935,299.2262,362.7408,289.5273,237.2249,6321.361
36.818,8246.666,792484.6,945053.4,746063.9,0.363677,3.054734,-0.2563716,354.6266,6334.799,360.6947,352.3908,441.171,355.5714,300.2786,6334.799
36.833,8261.777,792821.3,945466.1,746381.0,0.07901564,-1.660372,-2.171821,269.7276,6347.182,255.2621,277.23,304.1077,248.8946,195.0256,6347.182
36.848,8269.04,793158.5,945879.3,746698.5,1.027961,-2.288174,2.183112,111.2975,6351.758,55.03787,117.0455,28.45844,41.61218,-11.96385,6351.758
36.863,8264.479,793495.8,946292.6,747015.9,0.662373,0.5695395,0.3005804,111.2975,6345.089,-169.9707,-86.80341,-254.5547,-224.067,-254.8139,6345.089
36.878,8248.227,793832.6,946705.4,747332.8,-0.5107229,-1.78143,0.7925047,-48.14619,6327.819,-341.2496,-262.7791,-454.593,-426.0172,-435.9619,6327.819
36.893,8226.569,794168.3,947117.3,747648.6,0.6499246,2.066594,1.488052,-140.5701,6305.581,-398.2358,-298.2175,-510.4174,-440.2799,-453.5962,6305.581
36.908,8208.301,794502.8,947528.2,747963.4,0.1190473,-0.81609,0.2266617,-133.0356,6286.285,-310.1613,-204.9271,-380.0883,-290.4594,-318.2352,6286.285
36.923,8200.029,794836.5,947938.4,748277.4,-1.159902,-2.512445,0.6638424,-133.0356,6276.454,-114.9237,-29.59685,-81.07254,-40.39392,-75.01202,6276.454
36.938,8198.01,795169.8,948348.3,748591.2,-0.1140338,0.4270351,-1.158336,-14.24778,6272.703,123.0288,179.8441,-81.07254,-40.39392,-75.01202,6272.703
36.953,8202.027,795503.1,948758.3,748904.9,-0.4868761,2.161263,0.4925899,157.0701,6275.343,325.9892,321.9906,267.1375,201.107,180.6243,6275.343
36.968,8215.067,795837.0,949168.8,749218.9,-0.8117322,-0.2041343,-1.424693,157.0701,6287.758,390.0483,324.6361,434.9221,320.5113,315.9521,6287.758
36.983,8229.565,796171.8,949579.9,749533.7,-0.1827841,1.262633,0.07852427,180.6527,6302.224,316.2236,222.7559,363.7279,259.418,262.672,6302.224
36.998,8237.905,796507.4,949991.6,749849.0,-0.9925657,2.707885,0.2843349,66.70295,6310.921,133.184,48.56013,130.4531,74.18542,85.23122,6310.921
37.013,8241.614,796843.6,950403.6,750164.6,-0.08791754,2.18098,-1.273339,66.70295,6315.183,-131.1863,-159.1056,130.4531,74.18542,85.23122,6315.183
37.028,8240.478,797179.8,950815.6,750480.4,-0.3809629,0.2286513,-2.736781,-61.61512,6314.777,-327.3363,-303.3947,-142.7633,-119.6646,-101.4668,6314.777
37.043,8231.612,797515.8,951227.4,750795.9,-0.9320324,2.374728,-0.608694,-168.8652,6307.459,-360.6652,-342.9875,-265.5646,-234.9349,-191.2634,6307.459
37.059,8221.277,797851.3,951638.8,751111.1,0.3227004,0.8522886,-2.011729,-178.9649,6300.08,-240.5181,-269.1633,-189.1751,-178.4723,-103.9193,6300.08
37.074,8216.021,798186.3,952049.7,751426.1,-0.6856164,0.04835152,2.812261,-104.413,6298.518,-88.16287,-146.8102,-35.77255,-31.79375,41.45279,6298.518
37.089,8218.187,798521.3,952460.6,751741.1,-0.6913477,1.188434,2.797885,-0.4518433,6303.723,84.6136,-0.8768616,170.8168,118.4422,166.7449,6303.723
37.104,8228.923,798856.7,952871.8,752056.6,-1.091994,0.8779226,-0.8108784,137.7543,6316.071,278.578,195.9042,418.3365,310.9965,327.1568,6316.071
37.119,8247.938,799193.1,953283.7,752372.9,-0.4361528,0.7357206,1.966681,273.1106,6335.975,405.3049,336.3142,588.3339,449.614,468.9967,6335.975
37.134,8270.06,799530.9,953696.6,752690.3,-0.9476805,1.307711,-1.999089,293.0992,6359.36,432.0254,353.8884,607.4443,435.224,466.4368,6359.36
37.149,8287.929,799870.1,954110.6,753008.8,-0.6894089,0.472703,1.178853,205.9131,6378.854,321.7835,252.5539,429.2717,279.558,313.3316,6378.854
37.164,8301.906,800210.5,954525.3,753328.1,-0.4350337,0.9547804,2.352859,51.96318,6394.521,88.19214,70.46823,429.2717,279.558,313.3316,6394.521
37.179,8308.367,800551.8,954940.6,753648.0,-0.646893,0.2920582,0.5495776,-149.7667,6402.828,-171.9058,-131.531,70.58881,-21.13788,18.93335,6402.828
37.194,8299.644,800893.1,955355.8,753967.9,-0.8558746,1.242011,-2.778366,-309.5356,6395.732,-377.3264,-290.5075,-292.8905,-327.7993,-302.7396,6395.732
37.209,8279.916,801233.9,955770.3,754287.4,-0.472365,0.5797856,1.210283,-336.5678,6380.595,-444.2315,-348.0876,-474.3846,-461.3189,-302.7396,6380.595
37.224,8258.711,801573.7,956183.7,754606.0,-1.095708,0.9930664,-1.702796,-251.6724,6363.516,-354.1154,-278.5713,-438.5439,-386.8712,-380.4246,6363.516
37.239,8244.657,801912.4,956596.3,754923.8,-0.4505679,1.026102,2.591858,-117.8987,6348.053,-146.0625,-105.3354,-213.6365,-175.2762,-238.0886,6348.053
37.254,8242.134,802250.7,957008.4,755241.1,-0.6065598,1.39248,-2.179618,53.82405,6341.483,96.8277,109.4777,105.7199,74.32034,-24.73148,6341.483
37.269,8245.85,802589.2,957420.6,755558.1,-0.8605871,0.38974,1.033729,212.611,6340.246,277.2633,266.4053,345.9029,74.32034,-24.73148,6340.246
37.284,8253.109,802928.4,957833.1,755875.2,-0.4037402,1.027313,-3.012722,272.8192,6342.262,357.8154,306.8986,408.1907,216.0583,105.3735,6342.262
37.299,8263.172,803268.6,958246.1,756192.4,-1.056001,0.9610113,-0.4692598,207.6964,6346.488,278.8647,242.4202,261.3757,186.459,63.66331,6346.488
37.314,8272.495,803609.3,958659.4,756509.8,-0.789165,0.6796744,1.261491,46.2847,6349.671,94.42133,73.01422,-33.694,186.459,63.66331,6349.671
37.329,8277.241,803949.9,959073.2,756827.3,-0.5637441,1.142027,-1.129979,-130.4911,6348.249,-132.1927,-149.7847,-352.6787,3.376892,-120.5614,6348.249
37.344,8271.646,804289.6,959486.9,757144.4,-0.6508933,0.6861007,2.776634,-247.5338,6336.952,-328.4053,-335.6805,-585.5908,-227.1967,-331.3405,6336.952
37.359,8258.236,804628.1,959900.2,757460.8,-0.7927959,1.153126,-0.2393817,-281.368,6320.385,-391.6434,-373.7975,-612.3597,-309.1585,-331.3405,6320.385
37.374,8244.649,804965.1,960312.8,757776.4,-0.4874749,0.7526995,-2.560538,-228.5831,6303.471,-295.7379,-271.2975,-450.1789,-234.3046,-345.2066,6303.471
37.389,8237.403,805301.1,960724.8,758091.3,-0.5264771,0.6595695,2.190762,-85.58618,6290.723,-70.01578,-76.48801,-153.3406,-55.53513,-164.7378,6290.723
37.404,8234.627,805636.7,961136.6,758405.6,-0.6992338,1.259797,-2.313897,116.6487,6282.486,174.6198,139.4899,193.5487,-55.53513,-164.7378,6282.486
37.419,8237.728,805972.8,961548.4,758719.7,-0.7708298,0.403276,0.8990484,270.3211,6280.326,338.609,297.5189,446.2388,179.5716,78.35669,6280.326
