time,vy,px,py,pz,pitch,roll,yaw,wz,vz,wx,wy,ax,ay,az,vx
3.32,0.02194825,0.01998974,-0.02046941,0.009983625,-0.0579049,-0.11484,0.7987,2.474524,0.0008947938,-0.3224298,-0.2770887,0.06127436,-0.04621218,0.1785311,0.03124617
3.38,-0.0005279994,0.02625103,-0.01859939,0.01317457,-0.05557473,-0.1397233,0.9421459,2.335546,0.0393323,-0.2881011,-0.2974516,0.2833552,-0.2291857,0.07458487,0.06294019
3.4,-0.003419915,0.02910306,-0.01869808,0.01498537,-0.0544128,-0.148056,0.9879171,2.266046,0.03309969,-0.2847016,-0.3089839,-0.7553317,0.113509,-0.3238892,0.05114078
3.42,-0.000525834,0.0307019,-0.01879673,0.01613501,-0.05261426,-0.1564617,1.033017,2.232911,0.01288567,-0.2992994,-0.3077945,-0.7777822,0.002254211,-0.4846716,0.01281292
3.44,0.0121442,0.03046595,-0.01850627,0.01661907,-0.049868,-0.1648708,1.07876,2.265946,0.006476904,-0.3263772,-0.2979146,-0.6247725,0.5045471,0.2283211,-0.02225095
3.46,0.04443256,0.02932572,-0.01709185,0.01733125,-0.0462825,-0.1731729,1.1265,2.367553,0.02201021,-0.3471844,-0.2891979,0.5804781,0.7869874,0.3930111,-0.02335831
3.48,0.05998993,0.0281197,-0.01448129,0.01827999,-0.0421813,-0.1812649,1.175974,2.456277,0.0159393,-0.3520364,-0.2857003,-0.6414454,-0.1646927,-0.6358478,-0.02488249
3.5,0.05179236,0.02672578,-0.01168673,0.01836087,-0.03750441,-0.1892129,1.225406,2.456277,-0.01270398,-0.3617524,-0.2857003,0.4017746,-0.1632102,-0.5098833,-0.03087426
3.52,0.04475259,0.02572088,-0.009273106,0.01745645,-0.03257298,-0.196855,1.275428,2.48819,-0.02347284,-0.3543989,-0.2848798,0.4603319,-0.1183806,0.07912885,-0.009321602
3.54,0.0553783,0.02535164,-0.006769835,0.01632616,-0.02722993,-0.2042502,1.325287,2.482445,-0.02173879,-0.3562921,-0.2848798,-0.3054,0.5434091,-0.00976687,-0.005448306
3.56,0.0715425,0.02512057,-0.003596814,0.01544046,-0.0219808,-0.2115105,1.374525,2.453452,-0.01368925,-0.335693,-0.2966782,0.3715538,0.1031585,0.3317485,-0.003794462
3.58,0.0678966,0.02502022,-0.0001108369,0.01463472,-0.0168623,-0.2188095,1.422898,2.412019,-0.01854034,-0.3147183,-0.3157598,-0.2285493,-0.2489943,-0.5257922,-0.0002193502
3.6,0.07873634,0.02496766,0.003554986,0.01318303,-0.0114266,-0.2258481,1.471229,2.412019,-0.03952726,-0.3132297,-0.3157598,0.1619961,0.682584,-0.3136847,-0.00188318
3.62,0.08386329,0.02486128,0.007619977,0.01133443,-0.006002082,-0.232815,1.519028,2.387398,-0.03441686,-0.2968681,-0.3269244,-0.1815423,-0.4775063,0.5181008,-0.002371836
3.64,0.04925141,0.02492115,0.01094785,0.009840181,-0.0001610443,-0.2398538,1.566983,2.397126,-0.02535305,-0.3018063,-0.3437945,0.4670761,-0.9069687,-0.1555483,0.004766508
3.66,0.01929043,0.02546786,0.01266139,0.008465709,0.006489054,-0.2471988,1.615146,2.409768,-0.02962583,-0.325089,-0.3740227,0.02633572,-0.2914704,-0.01536319,0.0171018
3.68,0.002446109,0.02607002,0.01320481,0.007040305,0.01375891,-0.2541968,1.663261,2.409768,-0.02739031,-0.3388264,-0.3740227,-0.4310147,-0.3823026,0.1047842,0.006984827
3.74,-0.0380995,0.02576766,0.01000032,0.003932208,0.04120928,-0.2752001,1.806548,2.383944,-0.01981494,-0.4225241,-0.4450876,-0.1564643,-0.09748846,0.02494305,-0.004575493
3.76,-0.03879245,0.02552871,0.008078022,0.003019815,0.05172626,-0.2816263,1.85316,2.345936,-0.01668076,-0.4262012,-0.4450876,0.1401822,0.06977065,0.1004239,-0.004982546
3.78,-0.03376932,0.0255577,0.006263978,0.002275031,0.06286799,-0.2881388,1.898716,2.296869,-0.01311061,-0.4338034,-0.477573,0.3048122,0.1311544,0.04238203,0.006142315
3.8,-0.02462561,0.02611634,0.004804105,0.001656713,0.07448352,-0.2944444,1.943175,2.244975,-0.01162213,-0.4377535,-0.494807,0.09761241,0.2345939,0.01715744,0.01620293
3.827,-0.01134447,0.02691233,0.003904853,0.001072587,0.08584286,-0.3003704,1.986641,2.197366,-0.01174291,-0.4111184,-0.4909257,-0.1202626,0.2966516,-0.02198863,0.01563668
3.847,0.001303413,0.02759652,0.003653826,0.0003524232,0.0970153,-0.3058466,2.02933,2.159797,-0.01706363,-0.390729,-0.4836581,-0.03595155,0.2092635,-0.1908405,0.01173132
3.867,0.01176659,0.02813815,0.003980577,-0.0007393091,0.1084102,-0.3108446,2.072007,2.159797,-0.02660565,-0.390729,-0.4836581,-0.03595155,0.2092635,-0.1908405,0.009933743
3.887,0.01293594,0.02841051,0.004598139,-0.002120929,0.1196716,-0.3155861,2.114153,2.134627,-0.02865912,-0.3705846,-0.4851482,-0.3229764,-0.1624897,0.1087016,0.0009605447
3.907,0.004163881,0.02827942,0.005025635,-0.003474909,0.1306043,-0.3203494,2.155932,2.118946,-0.02550009,-0.3356136,-0.4921151,0.03638894,-0.1883925,0.01765974,-0.006204142
3.927,0.001847222,0.02803917,0.005175912,-0.004736129,0.1410577,-0.3253564,2.197428,2.109057,-0.02494874,-0.2884412,-0.5016654,0.0755482,0.09572614,0.004394151,-0.003405713
3.947,0.004526924,0.02786486,0.005335266,-0.005953453,0.1511972,-0.3305829,2.238765,2.105173,-0.02374419,-0.2485713,-0.5120858,-0.08200239,0.0114619,0.04378786,-0.003567067
3.967,0.002913301,0.02762477,0.005521271,-0.007151851,0.1615024,-0.3356883,2.280019,2.102787,-0.02419173,-0.2376714,-0.5222466,-0.01677099,-0.0760068,-0.06168962,-0.006036401
3.987,-0.002646353,0.02730019,0.005527945,-0.008382592,0.1722677,-0.3403889,2.321399,2.10836,-0.02503794,-0.2466505,-0.5317576,-0.0196398,-0.1463794,0.02784139,-0.006946671
4.007,-0.00753591,0.02699256,0.005273389,-0.009699845,0.1833442,-0.3447509,2.362837,2.110775,-0.02765218,-0.247502,-0.5401029,0.08317339,-0.0492029,-0.1324109,-0.005358331
4.027,-0.009087896,0.02674603,0.004857793,-0.01118911,0.1944578,-0.3489833,2.404403,2.118375,-0.03191823,-0.2311055,-0.5465678,-0.04895857,-0.01287655,-0.03823131,-0.00450296
4.047,-0.008665964,0.02663955,0.004413947,-0.01272616,0.2054398,-0.3532356,2.446015,2.123148,-0.02956398,-0.2034654,-0.5510892,0.2388252,0.02975377,0.1324016,0.0002437057
4.067,-0.004284632,0.0268483,0.004090182,-0.01408123,0.2162178,-0.3575877,2.487559,2.123049,-0.02463866,-0.1705653,-0.5538542,0.07567707,0.1454996,0.06461096,0.008106262
4.087,-0.001001444,0.02728437,0.00395803,-0.01527017,0.226913,-0.361891,2.529519,2.145605,-0.02291927,-0.147172,-0.5554542,-0.02645907,-0.01417206,0.004164848,0.009336713
4.107,-0.01295902,0.02780616,0.003609019,-0.01651415,0.2377596,-0.3658007,2.572714,2.205112,-0.02683965,-0.1439568,-0.5565574,0.1143701,-0.4641309,-0.1609801,0.01153449
4.127,-0.03592324,0.02826968,0.002386962,-0.01811179,0.2487945,-0.3692194,2.617099,2.26084,-0.03706611,-0.1451463,-0.5577228,-0.2954827,-0.454438,-0.2480785,0.007006674
4.147,-0.04650225,0.02837994,0.0003263247,-0.02009834,0.2599752,-0.3721862,2.662218,2.293652,-0.04239579,-0.1431445,-0.5593054,-0.08863929,0.03127772,0.0348915,-0.002596377
4.167,-0.03805829,0.02822203,-0.001787689,-0.02204345,0.2713423,-0.3745355,2.707583,2.2995,-0.0354083,-0.1489495,-0.5602417,0.04369744,0.3064805,0.244608,-0.003719923
4.187,-0.01587584,0.02817086,-0.003136042,-0.02360776,0.2829383,-0.3760693,2.752987,2.291577,-0.02716424,-0.1642401,-0.5610947,0.1720141,0.5808176,0.08515435,0.001672864
4.207,0.003972948,0.02847302,-0.003433614,-0.02489396,0.2947506,-0.3766142,2.798271,2.272369,-0.02428373,-0.1870148,-0.5609963,0.1776217,0.2131339,0.03006608,0.01041376
4.227,0.01048295,0.02901287,-0.003072217,-0.0260899,0.3067561,-0.3759742,2.84345,2.249856,-0.02355414,-0.2183094,-0.5601775,-0.1469619,0.04726616,-0.0008822717,0.01118025
4.247,0.01284626,0.02938818,-0.002488986,-0.02726871,0.3187217,-0.3747615,2.888805,2.249463,-0.02359825,-0.2183094,-0.5601775,-0.1469619,0.04726616,-0.0008822717,0.003832157
4.267,0.01516821,0.02967699,-0.001788625,-0.02850779,0.3305672,-0.3721549,2.93413,2.225078,-0.02596468,-0.2554264,-0.5486293,0.3024838,0.04561198,-0.09377487,0.007720206
4.287,0.01626352,0.03039432,-0.001002831,-0.02984065,0.3416714,-0.3681003,2.979441,2.199024,-0.02734968,-0.290226,-0.5107137,0.2276174,-0.001799716,0.03837507,0.02097274
4.307,0.02104628,0.03154533,-7.008651e-05,-0.03111348,0.3516398,-0.3627728,3.024817,2.178626,-0.02356375,-0.3174626,-0.4588647,-0.06382174,0.1931102,0.113062,0.02506763
4.327,0.02733564,0.03271342,0.001139462,-0.03216039,0.3606985,-0.3564231,3.070243,2.160934,-0.01831256,-0.3388667,-0.4230859,-0.07264295,0.0584641,0.09698573,0.02165601
4.347,0.02673633,0.03360204,0.002491261,-0.03299834,0.3692714,-0.3492444,3.115858,2.152974,-0.01520535,-0.3557822,-0.4119683,-0.2380402,-0.08243655,0.02730236,0.01388893
4.367,0.02260655,0.034077,0.003724833,-0.03383766,0.3776451,-0.3413363,-3.121,2.172424,-0.01836747,-0.3693132,-0.4178414,-0.1131348,-0.08275444,-0.1537868,0.005109558
4.387,0.02088415,0.03429465,0.0048121,-0.03482065,0.3857697,-0.3327278,-3.074361,2.171971,-0.02095219,-0.3813297,-0.4234707,0.05261011,0.01385835,0.0503977,0.00359644
4.407,0.02346013,0.03459078,0.005920707,-0.0358115,0.393398,-0.3236377,-3.026305,2.230538,-0.01868186,-0.3840374,-0.418252,0.1334713,0.08918081,0.04041561,0.008248477
4.427,0.02273859,0.03501124,0.007075675,-0.03678561,0.4006218,-0.314556,-2.977043,2.28793,-0.0202824,-0.3643979,-0.4161768,-0.1206059,-0.1180424,-0.1044374,0.008570112
4.447,0.01896507,0.03529714,0.008118266,-0.03786172,0.4076437,-0.3057501,-2.927768,2.291031,-0.02276178,-0.3316707,-0.4210669,-0.1075731,-0.03289822,0.005262539,0.002865636
4.467,0.0198786,0.0352784,0.009089357,-0.03900058,0.4144361,-0.296999,-2.877811,2.323387,-0.02279285,-0.3094779,-0.4249804,-0.1516566,0.0694394,-0.0065055,-0.003615106
4.487,0.01927895,0.03495811,0.0100683,-0.04015,0.4207902,-0.2879822,-2.826603,2.378041,-0.02318379,-0.3043915,-0.4222129,-0.07159838,-0.09342538,-0.00913217,-0.009196479
4.507,0.01292862,0.03445958,0.01087349,-0.04130784,0.4262402,-0.2786221,-2.773098,2.483382,-0.02313004,-0.3107607,-0.3998504,0.009661654,-0.1605878,0.01128239,-0.0107449
4.527,0.009921028,0.03392318,0.01144473,-0.04248104,0.4303267,-0.2690314,-2.717767,2.567967,-0.02379782,-0.3236986,-0.3569533,-0.008295532,0.0402841,-0.0379937,-0.01071074
4.547,0.01304453,0.03353654,0.01201887,-0.04368334,0.4329137,-0.2595425,-2.662025,2.589208,-0.02429402,-0.3313716,-0.304572,0.2465183,0.08465612,0.01814559,-0.004755173
4.567,0.01465363,0.03334214,0.01271132,-0.04490052,0.4343273,-0.2505323,-2.606009,2.612107,-0.0243934,-0.3230362,-0.2605681,-0.1771463,-0.02029241,-0.02212061,-0.003020873
4.587,0.01334082,0.0330267,0.01341118,-0.04611738,0.4350839,-0.2421452,-2.549387,2.655118,-0.02428062,-0.3013493,-0.2353477,-0.08588808,-0.03221985,0.02663188,-0.009596734
4.607,0.01209847,0.03253405,0.01404716,-0.0473,0.4353489,-0.234438,-2.49197,2.709041,-0.02302452,-0.2766085,-0.214153,0.06538632,-0.01747411,0.02361203,-0.01010928
4.627,0.01503421,0.0321672,0.01472548,-0.04844768,0.4351088,-0.2271668,-2.43449,2.721405,-0.02288234,-0.2643104,-0.1975963,0.1563959,0.1349037,-0.01792505,-0.004564723
4.647,0.01794852,0.03201346,0.01555005,-0.04958902,0.4345321,-0.2197238,-2.377222,2.707302,-0.02277151,-0.2696691,-0.2052206,-0.03719226,-0.01833154,0.02235858,-0.001584632
4.667,0.01644716,0.03177701,0.01640994,-0.05075332,0.4337934,-0.2115828,-2.31877,2.752061,-0.02380023,-0.2854098,-0.2374506,-0.2143596,-0.04172276,-0.06350732,-0.007873429
4.687,0.01117581,0.03129433,0.01710051,-0.05195393,0.4327688,-0.2026155,-2.259183,2.791804,-0.02422421,-0.3064709,-0.2728161,0.07194747,-0.169131,0.04654769,-0.01143373
4.707,0.0067745,0.03074844,0.01754927,-0.05312931,0.4310566,-0.1931639,-2.19866,2.829098,-0.02279103,-0.3303599,-0.2872989,-0.03067465,-0.006921615,0.01077966,-0.01040191
4.727,0.01009256,0.03022194,0.01797095,-0.05426731,0.4283106,-0.1837308,-2.139119,2.781243,-0.02272909,-0.3550377,-0.2771536,0.02042948,0.139644,-0.00830196,-0.01065804
4.747,0.01249885,0.02983281,0.01853573,-0.05542706,0.424676,-0.1745837,-2.08049,2.74297,-0.02366079,-0.3698271,-0.2641688,0.2096007,-0.04339252,-0.02896596,-0.004907288
4.767,0.01205087,0.02976997,0.01914948,-0.05664019,0.420334,-0.166289,-2.024162,2.646944,-0.02486438,-0.367732,-0.2347895,0.08244173,0.02547367,-0.01917785,0.002393773
4.787,0.01408657,0.02989933,0.01980291,-0.05788889,0.4154699,-0.1588353,-1.970206,2.547083,-0.02508351,-0.3624224,-0.2096015,-0.06697511,0.05595421,0.01041291,0.002780438
4.807,0.0164118,0.029881,0.02056537,-0.05912197,0.4101641,-0.1518793,-1.918382,2.452179,-0.02423989,-0.363353,-0.199878,-0.184787,0.03705482,0.02333178,-0.003513616
4.867,0.01908552,0.02857932,0.02328496,-0.06259412,0.3918726,-0.1336194,-1.766072,2.418333,-0.02277282,-0.3769753,-0.1746716,-0.05326772,0.06077908,0.0185538,-0.01322685
4.887,0.01943317,0.02788555,0.02424792,-0.06372822,0.3848992,-0.128964,-1.713363,2.547862,-0.02259113,-0.3800547,-0.1538024,0.001381847,-0.04687306,-0.01128618,-0.01452399
4.907,0.0176602,0.02715926,0.02517526,-0.06489137,0.3778501,-0.1252157,-1.659436,2.627234,-0.02393467,-0.3702982,-0.1321816,-0.001521,-0.02404572,-0.04245547,-0.01452747
4.927,0.01859587,0.02645017,0.02608166,-0.06609978,0.3708058,-0.1223576,-1.603559,2.74224,-0.02440175,-0.3597698,-0.1114404,0.02917767,0.06147236,0.02377231,-0.01383605
4.947,0.01757235,0.02575706,0.02698586,-0.06728394,0.3637507,-0.1203314,-1.546989,2.792871,-0.02296479,-0.3533168,-0.09300737,-0.03127807,-0.1024131,0.0337061,-0.01388856
4.967,0.01399988,0.02501535,0.02777517,-0.06840423,0.3567435,-0.1188788,-1.490944,2.77735,-0.0218466,-0.3465069,-0.08606251,-0.0443593,-0.0404855,0.01102144,-0.0157795
4.987,0.01574652,0.02422468,0.02851883,-0.06950884,0.349904,-0.1181299,-1.434946,2.78767,-0.02233795,-0.3363361,-0.071767,0.04163953,0.1103509,-0.0306755,-0.01584749
5.007,0.01863416,0.02345133,0.02937835,-0.07062686,0.3433772,-0.117981,-1.379575,2.766731,-0.02238281,-0.3209632,-0.06005908,-0.01119955,0.005154523,0.0288814,-0.01508649
5.027,0.01968278,0.02268367,0.03033627,-0.07177538,0.3372066,-0.1182052,-1.325196,2.723369,-0.02355778,-0.303606,-0.05656242,-0.01013974,0.03679037,-0.07588035,-0.01561998
5.047,0.01853339,0.02192485,0.03129168,-0.0729857,0.3314745,-0.1188305,-1.272156,2.662879,-0.02485516,-0.2840996,-0.04859666,0.04562765,-0.08276573,0.02398496,-0.01473278
5.067,0.01584275,0.02133518,0.03215108,-0.07418288,0.3260911,-0.119779,-1.220794,2.583956,-0.02303198,-0.2695313,-0.04324531,0.1895267,-0.02485998,0.04894219,-0.00885392
5.087,0.01527469,0.02107119,0.03292902,-0.07530987,0.3208112,-0.1210474,-1.170781,2.521373,-0.02204723,-0.267758,-0.04075969,0.09639409,0.002137534,-0.009552003,-0.001705901
5.107,0.01543485,0.02098048,0.03369675,-0.07640581,0.3153822,-0.1225784,-1.120483,2.53937,-0.02179063,-0.2773614,-0.04574159,-0.1050475,0.004268809,0.01981615,-0.001922237
5.127,0.01555286,0.02071506,0.03447145,-0.07750323,0.3096979,-0.1245427,-1.069141,2.597887,-0.02210643,-0.295547,-0.04717888,-0.1658601,0.0004516775,-0.03244839,-0.008694928
5.147,0.01497571,0.02009366,0.03523466,-0.07863157,0.303723,-0.1267085,-1.014042,2.788416,-0.02302678,-0.3101232,-0.06173149,-0.132774,-0.02353755,-0.004365381,-0.01616078
5.167,0.01484416,0.01920938,0.03598016,-0.07977654,0.2978166,-0.1289145,-0.9548668,2.992298,-0.02277238,-0.3044169,-0.07568269,0.01079111,0.01827525,0.01454132,-0.01921035
5.187,0.01507745,0.01824749,0.0367282,-0.0808989,0.2923315,-0.131245,-0.8942761,3.064386,-0.02212225,-0.2862286,-0.07618034,-0.01299529,-0.008943328,0.01146368,-0.01926546
5.207,0.01491642,0.01735215,0.03747804,-0.08199383,0.2870618,-0.1337378,-0.8327034,3.115257,-0.02167483,-0.2780298,-0.08045929,0.1216918,0.002501881,0.006433352,-0.01654804
5.227,0.01445964,0.01671447,0.03821244,-0.08307327,0.2818906,-0.1366808,-0.7720819,3.073332,-0.02150276,-0.2842029,-0.07817863,0.1818674,-0.02077295,0.0004490963,-0.008959065
5.247,0.01608513,0.01640782,0.03897607,-0.08417798,0.2767689,-0.1402361,-0.7135911,2.974427,-0.0226858,-0.2992013,-0.07307443,0.04421517,0.08579251,-0.04777061,-0.003307
5.267,0.01722981,0.01612155,0.03980894,-0.08532148,0.271669,-0.1444913,-0.6560441,2.935809,-0.0230539,-0.3200639,-0.06798592,-0.2376871,-0.04000536,0.03304682,-0.008143798
5.287,0.0155552,0.01554587,0.04062857,-0.08644676,0.2665285,-0.1494136,-0.600131,2.861875,-0.02195739,-0.3431447,-0.06858885,-0.03189391,-0.02697883,0.01081351,-0.01488332
5.307,0.01669617,0.01481038,0.04143485,-0.08756912,0.261272,-0.1549014,-0.5450864,2.824552,-0.02293668,-0.3651881,-0.07740551,0.04577588,0.0726176,-0.04998486,-0.01453627
5.327,0.01720194,0.0140895,0.0422823,-0.0887174,0.2560524,-0.1607903,-0.489577,2.85156,-0.02299486,-0.3766295,-0.08608648,-0.03628121,-0.05238696,0.04765745,-0.01429891
5.347,0.01498794,0.01334697,0.04308705,-0.08984605,0.2511521,-0.1668311,-0.4333041,2.890229,-0.0221508,-0.3710446,-0.08924699,-0.00785678,-0.03617282,-0.01389499,-0.01540236
5.367,0.01497229,0.01256007,0.04383606,-0.090965,0.2466835,-0.1729772,-0.3755175,2.965909,-0.02260721,-0.3618873,-0.08825597,-0.01900356,0.03554661,-0.004361645,-0.01607386
5.387,0.01511063,0.0117213,0.04458813,-0.09208861,0.2426485,-0.1793691,-0.3171859,2.994888,-0.02233747,-0.360315,-0.08454465,-0.03711259,-0.0300128,0.01515133,-0.01747677
5.407,0.01370273,0.01086682,0.04530847,-0.09319777,0.2390549,-0.1861165,-0.2598437,2.948442,-0.02202864,-0.3653735,-0.07907032,0.06808954,-0.02630347,-0.002797889,-0.01670234
5.427,0.01458283,0.01010036,0.0460156,-0.09432491,0.2359304,-0.1932849,-0.2044192,2.856323,-0.02305714,-0.3751064,-0.07191899,0.04175874,0.06150741,-0.03834209,-0.01395614
5.447,0.0156996,0.009534496,0.04677266,-0.0954795,0.2333077,-0.2008857,-0.1502757,2.796254,-0.02312607,-0.3871198,-0.06389576,0.16935,-0.01683633,0.03558492,-0.008678415
5.467,0.01831123,0.009127809,0.04762293,-0.09660214,0.2309929,-0.208857,-0.09764801,2.723755,-0.0217798,-0.3993548,-0.06692013,-0.1257776,0.1213015,0.01826552,-0.007589107
5.487,0.01919321,0.008603584,0.04856054,-0.09768862,0.228565,-0.2171242,-0.04472069,2.7412,-0.02167953,-0.4102683,-0.09249298,-0.105853,-0.08602262,-0.01425457,-0.01337987
5.507,0.01560362,0.007899374,0.04943047,-0.09879992,0.2257139,-0.225632,0.01008262,2.836722,-0.02277218,-0.4170468,-0.1354069,0.04950692,-0.05756067,-0.02945133,-0.01478852
5.527,0.01519108,0.007172881,0.05020034,-0.09994657,0.2222259,-0.2343571,0.06718625,2.952931,-0.02309396,-0.4184865,-0.190789,-0.02881295,0.04105903,0.01658015,-0.01427117
5.547,0.01551581,0.006437085,0.050968,-0.1010756,0.2180559,-0.2433789,0.1251071,2.995443,-0.02206886,-0.4183478,-0.2499022,-0.00676754,-0.02807015,0.02442381,-0.01516069
5.567,0.01695826,0.00568099,0.05177986,-0.1021787,0.2135846,-0.2527895,0.1834719,3.019921,-0.02205309,-0.4199936,-0.2916775,0.009870662,0.08576817,-0.02379306,-0.01508311
5.587,0.0167519,0.004912023,0.05262261,-0.1033141,0.2094392,-0.2625581,0.2409363,2.97664,-0.02336445,-0.4233699,-0.3033352,-0.03356778,-0.09402232,-0.02866111,-0.01567554
5.607,0.01446592,0.004066829,0.05340305,-0.10448,0.2061397,-0.2725501,0.2978705,2.950636,-0.02327052,-0.4275029,-0.2892636,-0.06470087,0.002582808,0.03241795,-0.01813226
5.627,0.01439237,0.003166187,0.05412452,-0.1056121,0.2039254,-0.2824269,0.3534935,2.882492,-0.02201451,-0.4228365,-0.2597029,0.07425533,-0.005524466,0.01782242,-0.01789339
5.647,0.01424265,0.002324448,0.05484039,-0.1067174,0.2027917,-0.2917629,0.4080991,2.825305,-0.02219532,-0.4035267,-0.2226282,0.0104327,-0.0004646447,-0.02505469,-0.01577619
5.667,0.01451532,0.001570531,0.05555934,-0.1078512,0.2026739,-0.3003744,0.4610325,2.734052,-0.02315755,-0.3802218,-0.182977,0.04539557,0.0113716,-0.01343436,-0.01438048
5.687,0.01567054,0.0009814465,0.05631399,-0.1090045,0.2035014,-0.3082707,0.5130153,2.679414,-0.02297398,-0.3612314,-0.1444632,0.1625079,0.03483713,0.0207769,-0.009182899
5.707,0.0167355,0.0006513366,0.05712413,-0.1101204,0.205192,-0.315591,0.5632017,2.584171,-0.02166292,-0.3511935,-0.1111382,0.04394812,0.007761274,0.03166543,-0.004021499
5.727,0.01574243,0.0004015387,0.05793609,-0.1112009,0.2076735,-0.322519,0.6132117,2.572068,-0.02155744,-0.3510242,-0.08493527,-0.1219048,-0.04748414,-0.02744591,-0.005970416
5.747,0.01525614,-1.871437e-05,0.05871105,-0.1123134,0.210865,-0.3291646,0.6635366,2.585852,-0.02294337,-0.3562341,-0.06555417,-0.07286675,0.0280327,-0.02799137,-0.01083971
5.767,0.01596908,-0.0006389477,0.05949168,-0.113486,0.2145433,-0.3357152,0.7164011,2.713039,-0.02395863,-0.3641197,-0.06195398,-0.05233013,0.0004848312,-0.01261892,-0.01396963
5.787,0.01571117,-0.001373465,0.06028368,-0.1146795,0.2185314,-0.3422275,0.771641,2.832702,-0.02378011,-0.3691694,-0.06868831,-0.005326995,-0.01080129,0.01975968,-0.01541106
5.807,0.01542909,-0.002155287,0.06106219,-0.1158685,0.2224915,-0.3486378,0.8297362,2.975751,-0.02378001,-0.3600397,-0.08669314,-0.01270399,-0.0004818975,-0.01975593,-0.01586183
5.827,0.01574343,-0.002957217,0.06184151,-0.1170707,0.2263228,-0.3547264,0.8897518,3.069487,-0.02430882,-0.3390047,-0.0999044,-0.001437029,0.01305562,-0.001396325,-0.01621536
5.847,0.01643842,-0.003779783,0.06264606,-0.11826,0.2302325,-0.3604582,0.9500428,3.080386,-0.02326366,-0.3248118,-0.1036848,-0.0174409,0.01474395,0.04320271,-0.0166873
5.867,0.01574959,-0.004588804,0.06345076,-0.1193828,0.2344919,-0.3658886,1.009888,3.055731,-0.02164883,-0.324204,-0.1008425,0.05799243,-0.04229718,0.0213905,-0.01567352
5.887,0.01505615,-0.005329228,0.0642209,-0.1204958,0.2392722,-0.3710226,1.067856,2.959498,-0.0228695,-0.3326943,-0.09386755,0.01121061,0.01455946,-0.07021703,-0.01394344
5.907,0.01601766,-0.005906701,0.06499774,-0.121676,0.2446544,-0.3758383,1.124879,2.909685,-0.02433852,-0.3463266,-0.08504834,0.180308,0.02390089,0.01145612,-0.009155476
5.927,0.01620479,-0.006348233,0.0658033,-0.1228803,0.250566,-0.3802712,1.181359,2.879097,-0.02383541,-0.3574908,-0.07655224,-0.1543217,-0.01641559,0.008668134,-0.008505817
5.947,0.01585043,-0.006937251,0.06660468,-0.1240827,0.256858,-0.3842566,1.239034,2.934634,-0.02426097,-0.3625814,-0.06950613,-0.1076418,0.002241402,-0.02569037,-0.01505491
5.967,0.01519259,-0.007724279,0.06738076,-0.1252754,0.2635098,-0.3877773,1.298501,3.019525,-0.02344661,-0.3683057,-0.06351343,0.05278909,-0.02855511,0.05826482,-0.01642622
5.987,0.01500036,-0.008525772,0.06813559,-0.1264001,0.2705652,-0.3908188,1.359544,3.093292,-0.02153863,-0.3778131,-0.05798234,-0.02107951,0.02086563,0.01805434,-0.01563349
6.007,0.01723963,-0.009284355,0.06894158,-0.1275078,0.2779984,-0.3933548,1.421147,3.115503,-0.02276992,-0.3877165,-0.0534024,0.05802492,0.06870539,-0.06730613,-0.01470985
6.027,0.01754676,-0.0100348,0.06981124,-0.1286914,0.2857491,-0.3953784,1.482483,3.095946,-0.02457503,-0.3965265,-0.05052492,-0.08195179,-0.05642007,-0.004898349,-0.01530802
6.047,0.01569959,-0.01083102,0.0706424,-0.1299138,0.2937634,-0.3969048,1.543627,3.079944,-0.02432189,-0.4044626,-0.04991761,0.03264629,-0.01746681,0.01502433,-0.01654066
6.067,0.01536327,-0.0116144,0.07141897,-0.1311191,0.3019886,-0.3978877,1.604497,3.058876,-0.02389124,-0.4112978,-0.04834273,0.03719841,0.004014108,0.002201477,-0.01479454
6.087,0.01641537,-0.01232793,0.07221344,-0.1322933,0.3103688,-0.3983145,1.664278,2.996387,-0.02307643,-0.4170572,-0.04695102,0.004708838,0.03806964,0.03039104,-0.01374686
6.107,0.01674225,-0.01301826,0.07304238,-0.1334203,0.3188663,-0.398181,1.722532,2.911458,-0.02200316,-0.4226439,-0.04568718,-0.009474874,-0.02499452,0.01253964,-0.01386601
6.127,0.01614835,-0.01373632,0.07386465,-0.1345376,0.3274419,-0.3974978,1.779235,2.825052,-0.02268784,-0.4278195,-0.04494845,-0.03015197,0.001238601,-0.03992686,-0.01485668
6.147,0.01596805,-0.0145165,0.07466756,-0.1357081,0.3360337,-0.3962801,1.835268,2.782535,-0.0241336,-0.4312926,-0.04469584,-0.02960115,-0.008450437,-0.01790367,-0.01635051
6.167,0.01530818,-0.01533265,0.07544947,-0.1369074,0.3445817,-0.3945385,1.891264,2.771424,-0.02383688,-0.4330837,-0.04463373,0.03180782,-0.01794432,0.02977259,-0.01629534
6.227,0.01710838,-0.01770985,0.07790016,-0.1403949,0.3688368,-0.3865953,2.054764,2.635962,-0.02292087,-0.4121539,-0.04333572,0.009332898,0.05528217,-0.02964315,-0.01591778
6.247,0.02042042,-0.01850233,0.07883838,-0.1415457,0.3763671,-0.3831117,2.107301,2.564052,-0.02311076,-0.4079228,-0.04233818,-0.003877405,0.07719933,0.02204724,-0.0157814
6.267,0.02226928,-0.01931801,0.07990562,-0.1426906,0.3835954,-0.3793961,2.158836,2.508329,-0.0226834,-0.3978778,-0.04671864,-0.03870616,-0.003245163,-0.004952748,-0.01684598
6.287,0.01896458,-0.02016534,0.08093647,-0.1438273,0.3904336,-0.3757534,2.209981,2.489023,-0.02278434,-0.3767809,-0.05900186,0.03065627,-0.1289425,0.0009152884,-0.01704723
6.307,0.01560068,-0.02098907,0.0818006,-0.1449748,0.3969586,-0.3721498,2.260818,2.473268,-0.02311524,-0.3595422,-0.07025301,0.01516015,-0.005613355,-0.01415125,-0.01590182
6.327,0.01633894,-0.02175727,0.0825991,-0.1461459,0.4033113,-0.368332,2.311516,2.461012,-0.02372865,-0.3551897,-0.07564094,0.02785615,0.03514381,-0.01038539,-0.01482642
6.347,0.0164766,-0.02251451,0.08341949,-0.1473048,0.4094316,-0.3642387,2.36281,2.484326,-0.02263088,-0.3509544,-0.07682316,-0.0533181,-0.02963764,0.05429621,-0.01546296
6.367,0.0152905,-0.02336015,0.08421367,-0.1484451,0.4150274,-0.3600983,2.415529,2.553525,-0.02297787,-0.3297918,-0.07464581,-0.0626713,-0.01780637,-0.0681755,-0.0183627
6.387,0.01632902,-0.02425739,0.08500415,-0.1496114,0.4199486,-0.3560843,2.469305,2.608048,-0.02367717,-0.2988815,-0.07027798,0.0961,0.05934722,0.04020333,-0.01752698
6.407,0.01763382,-0.02494827,0.08585321,-0.1507803,0.4243598,-0.3520332,2.523681,2.636404,-0.02307785,-0.2803588,-0.06515709,0.2006487,-0.007155225,-0.01623031,-0.01010827
6.427,0.01630027,-0.02540359,0.08670157,-0.151955,0.4285996,-0.3478733,2.577755,2.618276,-0.02390927,-0.2754469,-0.07058252,-0.1205036,-0.04618686,-0.01702672,-0.008104639
6.447,0.01499711,-0.02596081,0.08748401,-0.1531336,0.4331783,-0.3438101,2.6321,2.632994,-0.02323552,-0.2757825,-0.1024048,-0.1226804,-0.005939523,0.0439769,-0.01418424
6.467,0.01486052,-0.02673814,0.08823046,-0.1542692,0.4384362,-0.3397913,2.687335,2.677538,-0.02218842,-0.2833554,-0.1485932,0.01369394,0.0004761517,-0.002092974,-0.0169089
6.487,0.01517315,-0.02760402,0.08898129,-0.1553796,0.4441922,-0.3354043,2.745533,2.816966,-0.02222533,-0.2995064,-0.1804451,-0.04637712,0.01202873,0.0006166494,-0.01772598
6.507,0.01387358,-0.0285376,0.08970746,-0.1565197,0.4499743,-0.3304375,2.808228,3.02833,-0.02337972,-0.3124597,-0.1903071,-0.02927593,-0.06401147,-0.04679232,-0.01961731
6.527,0.01372283,-0.0295542,0.09039737,-0.1577196,0.455519,-0.3251364,2.873339,3.140589,-0.02461781,-0.3099482,-0.1942582,-0.02789801,0.05798171,-0.002731301,-0.02104666
6.547,0.0159402,-0.03054598,0.09113895,-0.158917,0.4606915,-0.3197951,2.941132,3.27274,-0.02327616,-0.2931987,-0.1960379,0.1247695,0.03071301,0.05639731,-0.01862487
6.567,0.01568346,-0.03139872,0.09192954,-0.160046,0.465318,-0.3144943,3.008533,3.25281,-0.02188277,-0.2723867,-0.188853,0.0008380636,-0.04098272,-0.0006615806,-0.01548468
6.587,0.0154977,-0.03215572,0.09270907,-0.1611749,0.4694635,-0.3090465,3.075543,3.228919,-0.02327534,-0.2627089,-0.1821775,0.02674749,0.03355231,-0.0550414,-0.01479504
6.607,0.01587212,-0.03276041,0.09349332,-0.1623447,0.4733811,-0.3031501,3.140796,3.12978,-0.02351473,-0.2691903,-0.1870838,0.1893391,-0.01857571,0.04546584,-0.009392874
6.627,0.01569072,-0.03306235,0.09428239,-0.163493,0.4771868,-0.2965946,-3.079597,2.990524,-0.02241733,-0.2856176,-0.1992045,0.07898083,0.01132001,-0.001569965,-0.002684875
6.647,0.01694163,-0.03317824,0.0950982,-0.1646288,0.4810962,-0.2892335,-3.018634,2.879229,-0.02301555,-0.3072888,-0.2248859,-0.04960993,0.03871638,-0.02235883,-0.001950603
6.667,0.01710821,-0.03341918,0.09594944,-0.1657826,0.4853637,-0.2809305,-2.957171,2.881076,-0.02313497,-0.330757,-0.2672505,-0.1798376,-0.03205321,0.0175822,-0.007686792
6.694,0.0169822,-0.03395555,0.0968017,-0.1669205,0.4900423,-0.2715867,-2.89437,2.921964,-0.02238285,-0.3532024,-0.317021,-0.06343096,0.02701277,0.01250243,-0.01376851
6.714,0.01665276,-0.03465294,0.09764257,-0.1680442,0.4948819,-0.2612928,-2.82952,3.00003,-0.02256406,-0.3692947,-0.3579263,0.04909996,-0.04019023,-0.01975064,-0.01412678
6.734,0.01464325,-0.0352979,0.09842497,-0.1691971,0.4991225,-0.250638,-2.764457,3.00003,-0.02355159,-0.3692947,-0.3579263,0.04909996,-0.04019023,-0.01975064,-0.01167178
6.754,0.01297398,-0.03593679,0.0991154,-0.1704024,0.5029383,-0.2394917,-2.698108,3.050682,-0.02466229,-0.3723146,-0.3701132,-0.1375812,-0.02658068,-0.02467747,-0.01388382
6.774,0.01256868,-0.03667453,0.09975397,-0.1716381,0.5058136,-0.2283578,-2.632029,3.035896,-0.02476468,-0.3673088,-0.3514654,0.06789878,0.01036885,0.02058197,-0.01562588
6.794,0.01340958,-0.03731953,0.1004034,-0.172881,0.5074875,-0.2176567,-2.567704,2.957464,-0.02495372,-0.35786,-0.3130703,0.1501796,0.02326713,-0.02814347,-0.01017392
6.814,0.01487468,-0.03763964,0.1011105,-0.1741203,0.5079554,-0.207783,-2.504829,2.904512,-0.02461515,-0.3415909,-0.2648351,0.1515519,0.03533663,0.04168605,-0.002630627
6.834,0.01436223,-0.037799,0.1018415,-0.1753177,0.5072477,-0.1988063,-2.444217,2.813164,-0.0232809,-0.3301817,-0.2149599,-0.1960821,-0.05583454,0.01168393,-0.00374388
6.854,0.01349074,-0.03817877,0.1025378,-0.176478,0.505443,-0.19064,-2.383831,2.822076,-0.02313391,-0.3268064,-0.1701653,-0.1120375,0.02097497,-0.005804059,-0.01144687
6.874,0.01342873,-0.03879136,0.1032108,-0.1776354,0.5027248,-0.1832604,-2.325124,2.757815,-0.02316085,-0.3244557,-0.132962,0.04765561,-0.02345536,0.004726458,-0.01305641
6.894,0.01244347,-0.03943144,0.1038576,-0.1788151,0.4993321,-0.1764033,-2.266858,2.7493,-0.02402642,-0.3265311,-0.1125756,-0.0272768,-0.01595498,-0.03934913,-0.01254694
6.914,0.01239033,-0.04004035,0.1044784,-0.1800347,0.4955391,-0.1695457,-2.210185,2.670662,-0.02475735,-0.3356257,-0.1192233,0.05676565,0.01382914,0.01011189,-0.01180972
6.934,0.01294103,-0.04063298,0.1051117,-0.1812399,0.4914177,-0.1623964,-2.15285,2.69807,-0.02345163,-0.3494834,-0.1397888,-0.06019174,0.008198828,0.04211673,-0.01189537
6.954,0.01369311,-0.04126978,0.1057775,-0.1823879,0.4869564,-0.1548416,-2.095992,2.666017,-0.02247033,-0.3651834,-0.1664073,-0.007066594,0.02188453,-0.002864473,-0.01357683
6.974,0.01313576,-0.04194902,0.1064483,-0.1835358,0.4819839,-0.1471811,-2.039235,2.660094,-0.02344458,-0.3802569,-0.1795331,0.006444736,-0.04417868,-0.03610559,-0.01359238
6.994,0.01244675,-0.04261924,0.1070878,-0.1847226,0.4763757,-0.1397719,-1.983327,2.62522,-0.02402566,-0.3939449,-0.1778569,0.008594599,0.01661837,0.01286213,-0.0132164
7.014,0.0133001,-0.04326821,0.1077315,-0.1859251,0.4701112,-0.1328747,-1.928459,2.586806,-0.02407612,-0.4057314,-0.1668756,0.01035635,0.01751581,-0.01488022,-0.01274262
7.034,0.01351001,-0.04388188,0.1084018,-0.1871243,0.4632389,-0.1266555,-1.874655,2.550819,-0.02389053,-0.4153137,-0.1511117,0.02718979,-0.009119504,0.02230352,-0.01180397
7.054,0.01390882,-0.04446152,0.1090872,-0.1883116,0.455907,-0.1212373,-1.821525,2.536891,-0.02360145,-0.4191959,-0.1332167,-0.01030456,0.02507183,-0.01074016,-0.01138184
7.074,0.01461332,-0.04505014,0.1098003,-0.1894967,0.4484872,-0.116746,-1.767013,2.628091,-0.0238015,-0.406673,-0.1147917,-0.02094068,0.003108305,0.002738111,-0.01216297
7.094,0.01446676,-0.04569796,0.1105273,-0.1906649,0.4413327,-0.1132083,-1.710912,2.729594,-0.0229302,-0.3795411,-0.09757905,-0.04252397,-0.008970623,0.03211386,-0.01374958
7.114,0.01384015,-0.04640414,0.111235,-0.1918345,0.4344198,-0.1105156,-1.651591,2.909785,-0.02385116,-0.3571341,-0.08312087,0.01259716,-0.01609388,-0.06895222,-0.01449775
7.134,0.0138058,-0.04712009,0.1119261,-0.1930671,0.427621,-0.1085526,-1.590958,2.991503,-0.02545456,-0.3441614,-0.071944,0.001701829,0.01471986,0.004816211,-0.01414028
7.154,0.01443321,-0.04782465,0.1126321,-0.1943209,0.4209181,-0.1072416,-1.528623,3.090755,-0.02469626,-0.3346286,-0.06345281,0.002242057,0.01037625,0.02551583,-0.01404168
7.174,0.01350615,-0.04851354,0.1133306,-0.1955202,0.4142043,-0.1064248,-1.466232,3.103999,-0.02327794,-0.3322145,-0.06186583,0.01886525,-0.04745854,0.03121692,-0.013514
7.194,0.01429372,-0.04917116,0.1140256,-0.1966653,0.4072988,-0.1059176,-1.404835,3.060652,-0.02252257,-0.3391453,-0.06963108,0.01006092,0.07896125,-0.001002135,-0.01279085
7.214,0.01495796,-0.04980665,0.1147568,-0.1978015,0.4002601,-0.1057207,-1.343693,3.054212,-0.02292867,-0.3435483,-0.07763901,-0.003573973,-0.05239149,-0.01524174,-0.01262867
7.234,0.01375693,-0.0504522,0.1154747,-0.1989758,0.3933391,-0.1058979,-1.284173,2.980306,-0.02403955,-0.3369271,-0.08004364,-0.01902086,0.004350319,-0.02919372,-0.01319354
7.254,0.01356189,-0.05112915,0.1161577,-0.2002102,0.3865441,-0.1065182,-1.225937,2.924448,-0.02534008,-0.3320076,-0.07826426,-0.008601297,-0.01215193,-0.02282706,-0.0138841
7.274,0.01274983,-0.05182706,0.1168155,-0.2014562,0.3797633,-0.1075783,-1.170415,2.796635,-0.02449946,-0.3337986,-0.07767363,0.002663877,-0.02033062,0.05645159,-0.01403253
7.294,0.01463723,-0.05251649,0.1175002,-0.2026441,0.3731125,-0.1090682,-1.116571,2.72025,-0.02301302,-0.3314777,-0.07478878,0.01684824,0.09582673,0.003006144,-0.01354473
7.314,0.01534907,-0.05317617,0.1182498,-0.2037955,0.3666867,-0.1109443,-1.065449,2.59059,-0.0230432,-0.3254916,-0.07073996,0.01122525,-0.06735324,-0.004213286,-0.01284289
7.334,0.01309165,-0.05380561,0.1189608,-0.2049658,0.3603108,-0.1130431,-1.015703,2.525142,-0.02377094,-0.3247336,-0.07662971,0.009116261,-0.02294327,-0.02489643,-0.01233435
7.354,0.01304664,-0.05443298,0.1196143,-0.206184,0.3536847,-0.1151452,-0.968083,2.418187,-0.02495481,-0.3312978,-0.0988593,-0.02616271,0.02114278,-0.02245845,-0.01276052
7.374,0.01400898,-0.05507617,0.1202907,-0.2074191,0.3467313,-0.1173393,-0.9222523,2.3296,-0.02445046,-0.342261,-0.120102,0.01789165,0.01735069,0.04263235,-0.01296729
7.394,0.01404237,-0.05569926,0.120992,-0.2086297,0.3397017,-0.1197897,-0.8767334,2.317591,-0.02397254,-0.3470722,-0.128318,0.02255697,-0.01601498,-0.02351533,-0.01195607
7.414,0.01312728,-0.05628465,0.1216712,-0.2098228,0.3329759,-0.1224413,-0.8313593,2.312872,-0.02375473,-0.3358471,-0.126597,-0.00268469,-0.02058878,0.03222749,-0.01145927
7.434,0.01383604,-0.05686551,0.1223453,-0.211017,0.3268341,-0.1251711,-0.7853993,2.342645,-0.02401281,-0.3113546,-0.1187481,-0.00994746,0.04893907,-0.04255049,-0.01177507
7.454,0.01456485,-0.05748641,0.1230553,-0.2122296,0.3212763,-0.127858,-0.7375462,2.435918,-0.02449189,-0.2840055,-0.1133082,-0.04149537,-0.01978662,0.02338734,-0.01306114
7.474,0.01320233,-0.05820466,0.1237495,-0.2134469,0.316067,-0.1305008,-0.6881438,2.512049,-0.02419796,-0.2653562,-0.1150117,-0.06281772,-0.03471382,-0.01163007,-0.01566897
7.494,0.01303493,-0.05902339,0.1244054,-0.2146551,0.3111198,-0.1332236,-0.6349944,2.700123,-0.02412941,-0.2542417,-0.1156576,0.00637651,0.02801783,0.0143721,-0.01708
7.514,0.01371581,-0.05985485,0.1250742,-0.2158348,0.3065591,-0.1360436,-0.5794483,2.820904,-0.02305941,-0.2405252,-0.1106674,0.02968905,-0.0007826889,0.02842791,-0.01617836
7.534,0.01403243,-0.06062454,0.1257679,-0.2169883,0.3024393,-0.1389373,-0.5234142,2.845854,-0.02307898,-0.2255818,-0.1031827,0.03307934,0.01344735,-0.02921077,-0.01460915
7.554,0.0131217,-0.06116847,0.1264468,-0.2181428,0.2984767,-0.1420008,-0.4679679,2.818393,-0.02310199,-0.2230331,-0.1047357,0.2653709,-0.04987673,0.02829011,-0.007147896
7.574,0.01174507,-0.06131972,0.1270684,-0.2192864,0.2940781,-0.1453077,-0.4137229,2.761226,-0.0226431,-0.2369539,-0.1314727,0.06444556,-0.005188087,-0.00993425,0.001097515
7.594,0.01078219,-0.06128646,0.1276316,-0.2204181,0.2887957,-0.1487421,-0.3611448,2.678882,-0.02262323,-0.2521681,-0.1824701,-0.099025,-0.03332713,0.01072903,0.0002330289
7.614,-0.01840483,-0.0611546,0.127441,-0.2219478,0.2825004,-0.1519896,-0.3095677,2.625213,-0.03856573,-0.2507957,-0.2460375,0.2913554,-1.134154,-0.6484293,0.00504129
7.634,-0.05138146,-0.06096747,0.1256964,-0.2240165,0.2753485,-0.1549965,-0.2595852,2.541066,-0.0441822,-0.2391932,-0.3027343,-0.3952442,-0.1849118,0.4237709,0.002444072
7.654,-0.04617845,-0.06103968,0.1232574,-0.2260355,0.2676812,-0.1581372,-0.2112556,2.459089,-0.03657861,-0.2366048,-0.3376069,0.08418541,0.3930325,-0.1196278,-0.005332397
7.674,-0.03291577,-0.06090615,0.12128,-0.2279544,0.2597306,-0.1617074,-0.1645394,2.382794,-0.04017653,-0.2436304,-0.3584451,0.556059,0.1374743,-0.0242885,0.01067371
7.694,-0.02604206,-0.05987832,0.1198061,-0.2299936,0.2519495,-0.1656496,-0.1178902,2.382794,-0.04139095,-0.2436304,-0.3584451,0.2345631,0.1374743,-0.0242885,0.03043926
7.714,-0.08227168,-0.05872672,0.1170982,-0.2327191,0.2440055,-0.1700495,-0.07244992,2.326431,-0.06762825,-0.250113,-0.3752395,-0.827154,-2.386659,-1.025204,0.01562449
7.734,-0.1664449,-0.05878242,0.1108803,-0.2369694,0.2359233,-0.174794,-0.02764639,2.296961,-0.1023863,-0.250423,-0.3921829,-0.5119209,-0.980269,-0.3651191,-0.01785238
7.754,-0.1462835,-0.05963573,0.1030621,-0.2416593,0.2277431,-0.1797263,0.01664536,2.271641,-0.08520856,-0.2423267,-0.4077917,0.5748154,1.786725,1.05223,-0.01628001
7.774,-0.07828862,-0.05984044,0.09744781,-0.2451727,0.2197139,-0.1846285,0.06071267,2.258132,-0.05532706,-0.2233595,-0.4105113,0.4000545,0.9330688,0.1430303,0.008091735
7.794,-0.03005034,-0.05926531,0.09473935,-0.2475645,0.2120792,-0.1892733,0.1045972,2.244356,-0.04034575,-0.1946094,-0.3992619,-0.1271889,0.9964625,0.456222,0.01491337
7.814,0.01010179,-0.05875101,0.09424064,-0.2492227,0.2048884,-0.1935514,0.149082,2.268901,-0.02598351,-0.1621493,-0.3832228,-0.2429993,0.6096226,0.1182679,0.005658668
7.834,0.04617453,-0.05862558,0.09564754,-0.2502378,0.1981256,-0.1974679,0.1951068,2.340865,-0.01461845,-0.1311626,-0.3661038,-0.009003527,0.833287,0.3363343,-0.0006414019
7.854,0.05848674,-0.05863417,0.09826407,-0.2509037,0.1915317,-0.2011217,0.2427262,2.416809,-0.01202009,-0.1033873,-0.3608606,0.04657805,-0.3407989,-0.2323996,0.0002979612
7.874,0.04102898,-0.05861404,0.100752,-0.251715,0.1847351,-0.2047275,0.293271,2.561519,-0.0204314,-0.08082697,-0.3747188,-0.03821299,-0.3575115,-0.104053,0.0005070877
7.894,0.03144502,-0.05845938,0.1025638,-0.2528354,0.177579,-0.2085334,0.3472676,2.734796,-0.0243833,-0.06504372,-0.3986885,0.2450987,-0.02584667,-0.05402279,0.005679231
7.914,0.02677653,-0.05798721,0.1040194,-0.2540429,0.1700509,-0.2127387,0.4035285,2.850184,-0.02391778,-0.05469277,-0.426299,0.05603937,-0.1608929,0.07264338,0.01320768
7.934,0.02100241,-0.05746253,0.1052138,-0.2552315,0.162216,-0.2174948,0.4597077,2.849057,-0.02362627,-0.04915866,-0.45412,-0.2731645,-0.07007198,-0.06098253,0.007779556
7.954,0.01835538,-0.05725104,0.1061978,-0.2564593,0.1542048,-0.2229423,0.5158734,2.851974,-0.02548308,-0.04989461,-0.4801011,-0.01082432,-0.03580943,-0.01329029,0.0006798371
7.974,0.006216864,-0.05723525,0.1068121,-0.2577262,0.1461553,-0.2291583,0.571193,2.813217,-0.02519565,-0.05489278,-0.5036005,-0.01830684,-0.4497311,0.02478771,-4.844182e-05
7.994,-0.01297484,-0.05723213,0.1066431,-0.2590854,0.1381654,-0.2361036,0.6252517,2.75283,-0.02916915,-0.05910128,-0.5239219,0.02718649,-0.3179369,-0.1837277,0.0001735496
8.014,-0.03084587,-0.05724063,0.1055476,-0.260756,0.1304454,-0.2435985,0.6778486,2.680673,-0.03765681,-0.06123959,-0.5323247,-0.05467724,-0.3969042,-0.1557788,-0.000513719
8.034,-0.0437088,-0.05727979,0.1036837,-0.2627483,0.1230581,-0.2515383,0.7288589,2.601284,-0.04203464,-0.06147017,-0.5365981,0.03311901,-0.1176128,-0.01933423,-0.001052675
8.054,-0.03504275,-0.05728602,0.101715,-0.2646613,0.1162786,-0.2595912,0.779045,2.557935,-0.03448375,-0.05941569,-0.5209347,0.0411214,0.4642544,0.3213698,0.0008033354
8.074,-0.01436138,-0.0570678,0.1004799,-0.2661605,0.1100908,-0.267653,0.8276444,2.476004,-0.02548531,-0.05543084,-0.5032069,0.2437576,0.3630004,0.03856771,0.007925309
8.094,0.01214776,-0.05644333,0.1004245,-0.2674311,0.1043915,-0.2757476,0.875565,2.439835,-0.02534071,-0.05072452,-0.4906266,0.1213891,0.697365,-0.03278391,0.01705398
8.114,0.04946002,-0.05555559,0.1019647,-0.2686001,0.09917673,-0.2838452,0.9225539,2.391046,-0.02141898,-0.0465961,-0.4776835,-0.06532976,0.7951256,0.1896533,0.01845546
8.134,0.06039965,-0.05469031,0.1047112,-0.2696382,0.09427269,-0.2921655,0.9691405,2.369956,-0.02010325,-0.04340899,-0.4794009,-0.02667206,-0.3575404,-0.1370242,0.01615541
8.154,0.04500331,-0.05392787,0.1073463,-0.2706923,0.08977738,-0.3005781,1.016672,2.415706,-0.02206304,-0.04054748,-0.4737584,-0.04585158,-0.2583132,0.0586328,0.01434232
8.174,0.04234232,-0.0532119,0.1095299,-0.2716863,0.08559314,-0.3092285,1.065153,2.462378,-0.01769617,-0.03725723,-0.4776614,0.04402799,0.1518737,0.1160419,0.01429673
8.194,0.04027026,-0.05249879,0.1115952,-0.2725423,0.08174778,-0.3180945,1.116095,2.584746,-0.016544,-0.03354543,-0.4807717,-0.0468012,-0.2347562,-0.06995491,0.0142274
8.214,0.03482091,-0.05193567,0.1134725,-0.2733859,0.07821761,-0.3272564,1.167536,2.609263,-0.01719946,-0.029429,-0.4888432,-0.1903983,0.0167824,0.04373655,0.008297415
8.234,0.03202386,-0.05168943,0.1151436,-0.2742283,0.07501925,-0.3367499,1.22017,2.66864,-0.01649761,-0.0255256,-0.4990998,-0.07940837,-0.1286646,-0.01566282,0.001552249
8.254,0.02791542,-0.05163257,0.1166421,-0.2751088,0.07227043,-0.3463955,1.272998,2.677531,-0.0187225,-0.02294894,-0.4998846,0.04621309,-0.03567323,-0.07333244,0.0007223673
8.274,0.02815802,-0.05159339,0.1180439,-0.2760832,0.07015213,-0.3556929,1.325663,2.666976,-0.02025093,-0.02230558,-0.475279,-0.04131718,0.04537737,0.01219509,0.0008447651
8.294,0.03016894,-0.05156307,0.1195021,-0.2771423,0.06876131,-0.3641456,1.377784,2.635991,-0.02211219,-0.02375906,-0.4268078,0.02224514,0.03505944,-0.08664534,0.0003679641
8.314,0.0294947,-0.05153177,0.1209937,-0.2783281,0.06807089,-0.3714791,1.429818,2.62734,-0.02532285,-0.02677408,-0.3665904,-0.001596991,-0.06202912,-0.04178126,0.0008841678
8.379,0.03154144,-0.0513607,0.1225196,-0.2795894,0.06794196,-0.3777819,1.483723,2.717323,-0.02512945,-0.0293796,-0.3132188,0.2045682,0.1438988,0.04951729,0.005958448
8.399,0.03434083,-0.05084682,0.1241667,-0.2807778,0.06819669,-0.3837971,1.538871,2.778605,-0.0224047,-0.03057001,-0.2988969,0.1409601,-0.03192323,0.05947267,0.01459665
8.419,0.03376752,-0.05007916,0.1258694,-0.2818579,0.0688312,-0.3895921,1.595049,2.829464,-0.02080131,-0.03284573,-0.2890585,-0.08044588,0.008990742,0.004663098,0.01610951
8.439,0.03379012,-0.04939737,0.1275583,-0.2829221,0.06987736,-0.3956255,1.650277,2.783024,-0.0217642,-0.03665153,-0.3033751,-0.1174395,-0.008086849,-0.04317875,0.01116237
8.459,0.03048652,-0.04899496,0.1291652,-0.284051,0.07141562,-0.4021586,1.705252,2.772535,-0.02339058,-0.04169989,-0.3323171,-0.131687,-0.124057,-0.02187658,0.00493421
8.479,0.0267446,-0.04889007,0.130596,-0.2852502,0.0735227,-0.4093001,1.759297,2.728764,-0.02458037,-0.04674239,-0.3685769,-0.09524068,-0.02561981,-0.02571488,-0.0007389821
8.499,0.02489702,-0.04900098,0.1318871,-0.2864957,0.07620966,-0.4168562,1.812038,2.665965,-0.02523926,-0.05094428,-0.3968789,-0.02308951,-0.04828368,-0.0006408277,-0.003697237
8.519,0.02368675,-0.04916579,0.1331016,-0.2877504,0.07935002,-0.4242696,1.863307,2.59282,-0.02494568,-0.05401937,-0.3980072,0.05517402,-0.0001270725,0.01238415,-0.002895124
8.539,0.02519137,-0.04926469,0.1343236,-0.2889963,0.08276254,-0.4309791,1.91352,2.538385,-0.02489047,-0.05768139,-0.3710616,0.01819997,0.06031186,-0.01017587,-0.001060774
8.559,0.02700115,-0.04931717,0.1356284,-0.2902489,0.08634147,-0.4367492,1.96344,2.520889,-0.02521493,-0.06367239,-0.3326876,-0.0173162,0.01207962,-0.002802546,-0.00103868
8.579,0.02708073,-0.04935952,0.1369805,-0.2914812,0.09002782,-0.441591,2.013567,2.52818,-0.02407707,-0.07066717,-0.295284,0.0326528,-0.008896647,0.04831693,-0.0006552649
8.599,0.02752659,-0.04936433,0.1383456,-0.2926509,0.0937863,-0.4456836,2.065044,2.593197,-0.022713,-0.07568724,-0.2667552,0.01207455,0.02673123,0.006245888,0.000462919
8.619,0.0293754,-0.04922113,0.1397682,-0.2938134,0.09762341,-0.4492944,2.119762,2.753861,-0.02378568,-0.07682414,-0.2515067,0.1800072,0.04722109,-0.04915305,0.005264964
8.639,0.03253584,-0.04879218,0.141316,-0.295005,0.1015614,-0.4526186,2.178267,2.94261,-0.02387823,-0.07453316,-0.2462194,0.08511643,0.07919637,0.04545111,0.01189306
8.659,0.03610111,-0.04817297,0.1430319,-0.2961671,0.105762,-0.4559224,2.238926,3.05099,-0.02260738,-0.07093955,-0.2571853,-0.04582696,0.06341448,0.005383025,0.01287529
8.715,0.04379487,-0.04766856,0.1450293,-0.2972323,0.1104816,-0.4594808,2.300508,3.099313,-0.02000049,-0.06688157,-0.2873736,-0.1771296,0.2443356,0.0988923,0.007301376
8.735,0.05747595,-0.04749316,0.1475611,-0.2981087,0.11541,-0.462742,2.362107,3.099313,-0.01505588,-0.06688157,-0.2873736,-0.1263495,0.3029078,0.0988923,-0.0002856013
8.755,0.06616464,-0.04758881,0.1506521,-0.2987957,0.1209344,-0.4661572,2.424622,3.146922,-0.01242192,-0.06367917,-0.3179635,-0.003830286,0.04463985,0.006465867,-0.003540095
8.775,0.05473452,-0.04777956,0.1536746,-0.2994806,0.1268247,-0.4692987,2.487202,3.149459,-0.01497298,-0.06587386,-0.3268165,-0.01817461,-0.5018446,-0.1085083,-0.004090218
8.795,0.03834785,-0.04800909,0.1560016,-0.3002971,0.1327867,-0.4718382,2.548485,3.081567,-0.01768973,-0.07195404,-0.3156514,-0.02184386,-0.1536216,-0.000161536,-0.005090679
8.815,0.03066678,-0.04829093,0.157727,-0.3011818,0.1386141,-0.4737359,2.608821,3.030555,-0.01769781,-0.07602522,-0.2967195,-0.02184386,-0.1536216,-0.000161536,-0.006182872
8.835,0.03653406,-0.04859481,0.159407,-0.3020669,0.1440577,-0.4749851,2.66881,3.009162,-0.01770588,-0.07700443,-0.2684181,0.03025194,0.3883131,-0.0001613181,-0.005972671
8.855,0.04556504,-0.04871395,0.1614595,-0.3029476,0.1488627,-0.4756316,2.730305,3.080437,-0.01752122,-0.07390689,-0.2309474,0.2569386,-0.02707387,0.007547632,0.001207093
8.875,0.04341329,-0.04847648,0.1636839,-0.3038314,0.1529333,-0.4757538,2.794385,3.206028,-0.01782983,-0.06976992,-0.1914057,0.02645735,-0.05899606,-0.0198919,0.00829199
8.895,0.04220049,-0.04806795,0.1658243,-0.3047266,0.1563907,-0.4754317,2.86071,3.314948,-0.01797853,-0.06857648,-0.1595829,-0.03616878,0.01048414,0.01394402,0.008049206
8.915,0.03924031,-0.047673,0.1678603,-0.3056154,0.1594468,-0.4747995,2.928035,3.362535,-0.01757494,-0.06770067,-0.1405996,0.02414345,-0.1288912,0.00219955,0.007748573
8.935,0.03655415,-0.0472953,0.1697551,-0.3064929,0.1621745,-0.4739514,2.994646,3.325029,-0.01752517,-0.06566423,-0.1267431,-0.03971252,0.02144452,-0.000208994,0.007359346
8.955,0.03406763,-0.0469426,0.1715207,-0.3073698,0.1645489,-0.4729735,3.059091,3.215389,-0.01754928,-0.06154966,-0.1124741,0.01529145,-0.1209055,-0.0007552183,0.006748819
8.975,0.03108876,-0.04673052,0.1731496,-0.3082619,0.1665783,-0.4719725,3.120613,3.068824,-0.01813762,-0.05457229,-0.09882652,-0.2158745,0.001750864,-0.02277843,0.001734243
8.995,0.03116653,-0.04680407,0.174706,-0.3091939,0.1682961,-0.4710232,-3.104231,2.909957,-0.01914043,-0.04611995,-0.08630592,-0.04054458,0.001360327,-0.01733409,-0.004676234
9.015,0.02942221,-0.04705438,0.1762207,-0.3101758,0.1697501,-0.4701695,-3.048998,2.755157,-0.02013552,-0.03727659,-0.07531202,0.0141625,-0.07113324,-0.02246974,-0.005335786
9.035,0.02780185,-0.04732404,0.1776513,-0.3111713,0.170993,-0.4694306,-2.996589,2.614827,-0.01968459,-0.02879719,-0.06604446,-0.01876497,0.006318429,0.04050724,-0.005450848
9.055,0.02747498,-0.04760302,0.1790332,-0.3121137,0.1720677,-0.4688023,-2.946603,2.494414,-0.01801023,-0.02142892,-0.05821567,0.008473166,-0.01939287,0.02646722,-0.005708142
9.075,0.02709218,-0.04787862,0.1803974,-0.3130268,0.1730048,-0.4682622,-2.897758,2.438095,-0.01851586,-0.01576514,-0.05153717,0.00720393,0.004080722,-0.04669262,-0.005316215
9.095,0.02632487,-0.04812941,0.1817328,-0.3139739,0.1738256,-0.4677867,-2.848286,2.470016,-0.01936776,-0.01169427,-0.0457955,0.01684956,-0.03477306,0.01261657,-0.004714878
9.115,0.02621231,-0.04837335,0.1830463,-0.3149384,0.174545,-0.4673572,-2.79792,2.515082,-0.01921373,-0.008833829,-0.04080024,-0.02996629,0.03027073,-0.006455327,-0.005042796
9.135,0.02658917,-0.04863997,0.1843663,-0.3159026,0.1751825,-0.4669543,-2.747391,2.523521,-0.01935302,-0.007005289,-0.036897,0.006780391,-0.01519654,0.0008837413,-0.005622444
9.155,0.02582228,-0.04893169,0.1856766,-0.3168769,0.1757603,-0.4665595,-2.697184,2.507426,-0.01961701,-0.005996237,-0.03431148,-0.02373188,-0.01547878,-0.01144323,-0.006046231
9.175,0.02500572,-0.04925945,0.1869473,-0.317844,0.1762835,-0.4661421,-2.647596,2.476217,-0.01906775,-0.006496262,-0.03263115,-0.01699188,-0.01718358,0.03341357,-0.007064324
9.195,0.0242184,-0.04963646,0.1881779,-0.3187705,0.176743,-0.4656694,-2.597934,2.479473,-0.01799368,-0.008819184,-0.03149772,-0.02107705,-0.01430935,0.009549335,-0.008016048
9.215,0.02419028,-0.05002511,0.1893881,-0.319671,0.1771428,-0.4651423,-2.546079,2.588698,-0.01802701,-0.01107167,-0.03083767,0.04053378,0.01318464,-0.01088259,-0.00752963
9.235,0.02427937,-0.05035611,0.1905998,-0.3205903,0.1774807,-0.4645527,-2.489999,2.799536,-0.01874586,-0.01370168,-0.03067167,0.03223309,-0.009621035,-0.01787121,-0.005710458
9.255,0.0251547,-0.05063025,0.1918357,-0.3215494,0.1777402,-0.4638614,-2.429554,3.017027,-0.0196167,-0.01824371,-0.0315276,-0.01402951,0.04463415,-0.01696268,-0.005255368
9.275,0.02512031,-0.05091609,0.1930926,-0.3225134,0.1779341,-0.4630674,-2.366679,3.137763,-0.01894222,-0.02221209,-0.03360106,-0.02287775,-0.04600968,0.04394192,-0.00617805
9.295,0.0235604,-0.05124371,0.1943096,-0.323457,0.1780607,-0.4621834,-2.303233,3.16554,-0.01880176,-0.02554457,-0.03580366,-0.00706487,-0.01638698,-0.03832336,-0.006926615
9.315,0.02262044,-0.05156236,0.1954641,-0.3244274,0.1780843,-0.4612153,-2.240056,3.151316,-0.02001546,-0.0298333,-0.03719261,0.0513522,-0.02121132,-0.01022446,-0.005819432
9.335,0.02300925,-0.05182082,0.1966049,-0.3254328,0.1780119,-0.4602008,-2.178096,3.089996,-0.02020134,-0.03266324,-0.03794789,0.000654502,0.03676374,0.00278916,-0.004519265
9.355,0.02371422,-0.05209408,0.197773,-0.3264138,0.1778818,-0.4591859,-2.118274,2.98302,-0.01903632,-0.03273237,-0.03831989,-0.07631803,-0.008564814,0.04381158,-0.006410852
9.375,0.02337794,-0.0524757,0.1989503,-0.3273506,0.1777263,-0.4581992,-2.060169,2.897347,-0.01843959,-0.0308239,-0.03833663,-0.02141269,-0.004886306,-0.01994251,-0.008854121
9.395,0.0237546,-0.05290938,0.2001286,-0.3282902,0.1775627,-0.4572651,-2.001698,2.916102,-0.01914106,-0.02775141,-0.03757496,0.03584467,0.01995249,-0.008116091,-0.00849332
9.415,0.02486163,-0.05328715,0.201344,-0.329227,0.1773938,-0.4564067,-1.941139,3.02128,-0.01833134,-0.02426254,-0.03561851,0.03920612,0.02432887,0.04050503,-0.006617051
9.435,0.02547794,-0.05358646,0.2026025,-0.3301475,0.1772287,-0.4556302,-1.878819,3.110176,-0.01848713,-0.0205129,-0.03331151,0.01125239,0.0003233713,-0.04673693,-0.005355588
9.455,0.02478124,-0.0538849,0.2038589,-0.3310838,0.1770812,-0.454916,-1.816337,3.118815,-0.01896662,-0.01670238,-0.03181052,-0.0603021,-0.02819138,0.02755756,-0.006581831
9.475,0.02414607,-0.05423811,0.2050821,-0.3320036,0.1769545,-0.454242,-1.754302,3.096794,-0.01782616,-0.01326507,-0.03108422,0.02171315,0.002784515,0.01806071,-0.007546555
9.495,0.02455641,-0.05446872,0.2062997,-0.332886,0.1767972,-0.4536007,-1.691397,3.140668,-0.01746957,-0.0125601,-0.03002817,0.213037,0.01362921,-0.003796999,-0.0016778
9.515,0.02575995,-0.05437405,0.2075576,-0.3337576,0.1764661,-0.4529874,-1.626853,3.222908,-0.01739473,-0.01916432,-0.02862198,0.07265692,0.03451245,0.006790555,0.005464549
9.535,0.02498724,-0.05421599,0.2088263,-0.3346443,0.1758534,-0.4524009,-1.561974,3.239927,-0.01807563,-0.03132138,-0.02815638,-0.2569218,-0.06542103,-0.03402686,0.0008579269
9.555,0.02340017,-0.05437435,0.210036,-0.3355845,0.1750201,-0.451848,-1.498448,3.172566,-0.01953199,-0.04054823,-0.02890256,-0.06508155,0.001938341,-0.02422732,-0.007192156
9.575,0.02450961,-0.05473162,0.2112337,-0.3365602,0.174087,-0.4513428,-1.437292,3.054343,-0.01949506,-0.04387337,-0.02955229,0.06881845,0.04243931,0.02570447,-0.007098734
9.595,0.02657925,-0.05491699,0.2125109,-0.3375168,0.1731379,-0.4509072,-1.378605,2.931439,-0.01876871,-0.04336859,-0.02887569,0.2024946,0.04034622,0.003349345,-0.0003159079
9.615,0.02768763,-0.05475735,0.2138676,-0.3384683,0.1722289,-0.4505416,-1.321806,2.837567,-0.01928891,-0.0404228,-0.0275255,0.07819773,0.003989071,-0.0241574,0.006701401
9.635,0.02691664,-0.05454203,0.2152327,-0.3394563,0.1713823,-0.4502127,-1.266713,2.752521,-0.02023503,-0.03631301,-0.02715636,-0.269786,-0.03482859,-0.0136871,0.001911693
9.655,0.02408086,-0.05467203,0.2165077,-0.3404487,0.1705627,-0.4498921,-1.213447,2.661238,-0.019459,-0.0336408,-0.02825999,-0.091144,-0.07860291,0.04472809,-0.007111558
9.675,0.02256427,-0.05502902,0.2176738,-0.3413942,0.1697201,-0.4495927,-1.161977,2.571519,-0.01835905,-0.03357131,-0.02943324,0.08887178,0.01793934,-0.0007301876,-0.007168364
9.695,0.02470313,-0.05533728,0.2188555,-0.3423237,0.1688089,-0.4493588,-1.111401,2.527351,-0.01882138,-0.03649613,-0.02962708,-0.008612256,0.0676152,-0.01776282,-0.005161874
9.715,0.0269238,-0.0556148,0.2201462,-0.3432824,0.1679342,-0.4491454,-1.062104,2.46355,-0.01952982,-0.03382165,-0.02968113,-0.0224537,0.02121173,-0.01057478,-0.005938523
9.735,0.02583136,-0.0559263,0.2214651,-0.3442442,0.16711,-0.4489344,-1.013638,2.422023,-0.01894162,-0.03022449,-0.02990283,-0.0008729265,-0.06490941,0.03410259,-0.006521689
9.755,0.02439501,-0.05625048,0.2227207,-0.3451569,0.1663265,-0.4487196,-0.9645787,2.451684,-0.01756581,-0.02691928,-0.03037839,0.003911715,0.007455129,0.02092997,-0.006445719
9.775,0.02630365,-0.05643261,0.2239882,-0.3460325,0.1655776,-0.4484934,-0.9150412,2.475521,-0.01745817,-0.02365761,-0.03111151,0.2203443,0.0688906,-0.01662449,-0.0008393182
9.795,0.02774738,-0.05642776,0.2253395,-0.3469391,0.1648602,-0.4482401,-0.8633072,2.585186,-0.01880526,-0.01999136,-0.03231098,-0.1454495,-0.01114126,-0.03725892,0.001033052
9.815,0.02599482,-0.05655075,0.226683,-0.3479122,0.1641602,-0.4479446,-0.8102756,2.649789,-0.02011991,-0.01622835,-0.03427988,-0.1339781,-0.0589614,-0.01532705,-0.005952639
9.835,0.02382479,-0.05691072,0.2279285,-0.348919,0.163467,-0.4476067,-0.7570445,2.659423,-0.02015147,-0.01266402,-0.03632981,0.03425598,-0.0278398,0.01406444,-0.008445691
9.855,0.02495204,-0.05732358,0.2291479,-0.3499087,0.1627813,-0.4472494,-0.7035064,2.674644,-0.01943582,-0.009736465,-0.03732046,-0.01917691,0.07292999,0.01456142,-0.008068714
9.875,0.02616217,-0.05768902,0.2304258,-0.3508792,0.1621017,-0.4468999,-0.648796,2.733372,-0.01938315,-0.007819638,-0.03730828,0.0799532,-0.0245247,-0.01245425,-0.006549307
9.895,0.02530906,-0.05798349,0.2317125,-0.3518813,0.1613233,-0.4465464,-0.5928761,2.793873,-0.02070055,-0.00845585,-0.04181943,-0.0271588,-0.009599696,-0.04024208,-0.005229447
9.915,0.02459755,-0.05825563,0.2329602,-0.3529213,0.1602744,-0.4461722,-0.5353903,2.872086,-0.02089967,-0.01244091,-0.054216,0.01009403,-0.01886071,0.0322774,-0.005656066
9.935,0.02477096,-0.05840787,0.2341944,-0.3539188,0.1589615,-0.4458179,-0.4753997,2.997611,-0.01899995,-0.01648903,-0.06592948,0.1988039,0.025797,0.04371138,-0.0004336178
9.955,0.0259539,-0.05826582,0.2354625,-0.3548124,0.1575314,-0.4455389,-0.4133413,3.101713,-0.0167449,-0.0183062,-0.07051765,0.06316185,0.02152075,0.04649048,0.006115527
10.015,0.02493019,-0.0584516,0.2392814,-0.3574795,0.1536405,-0.4453893,-0.2303873,2.962985,-0.02002366,-0.01780985,-0.05552835,0.01500639,-0.02180824,-0.0098204,-0.005972917
10.035,0.02446697,-0.05873172,0.2405163,-0.3584547,0.1526336,-0.4455169,-0.173634,2.839402,-0.01898259,-0.01627689,-0.04807819,0.0146293,0.003279214,0.05146298,-0.005232025
10.055,0.02438181,-0.05900017,0.2417376,-0.3593675,0.1517827,-0.4456878,-0.1190338,2.731982,-0.01752888,-0.01457124,-0.04087444,-0.02558584,-0.006685486,0.006685487,-0.005505938
10.075,0.02497437,-0.05928288,0.2429714,-0.3602425,0.1510749,-0.4458839,-0.06493503,2.707079,-0.01746984,-0.01290528,-0.03436263,0.01371944,0.0303881,-0.004323721,-0.005802598
10.095,0.02559599,-0.05949774,0.2442357,-0.3611297,0.1504777,-0.4461298,-0.00980772,2.758912,-0.01802068,-0.01326348,-0.02939697,0.106711,-0.005523522,-0.01770987,-0.002791838
10.115,0.02435299,-0.05951028,0.2454844,-0.3620379,0.1499542,-0.4464757,0.04599922,2.793663,-0.01830836,-0.0166363,-0.02648927,0.09656942,-0.04419659,0.006202374,0.002290172
10.135,0.02435588,-0.05943506,0.2467021,-0.3629626,0.1494823,-0.4469136,0.1013928,2.773657,-0.01867883,-0.01985806,-0.02513638,-0.1594224,0.04431239,-0.02102082,0.0007188467
10.155,0.02506458,-0.05955778,0.2479377,-0.3639078,0.1490457,-0.4474013,0.1557083,2.72007,-0.01912848,-0.02112448,-0.02474898,-0.09443546,-0.01596452,0.003034718,-0.005627601
10.175,0.0249549,-0.05988351,0.2491882,-0.3648568,0.1486375,-0.4479096,0.2085933,2.64864,-0.01883283,-0.02103207,-0.024634,0.02347413,0.01157742,0.008791017,-0.007401634
10.195,0.02554219,-0.06024684,0.2504506,-0.3658015,0.148269,-0.4484208,0.2599159,2.570473,-0.01895147,-0.02031493,-0.02379651,-0.01266624,0.01191401,-0.01353632,-0.007131436
10.215,0.02489738,-0.06059723,0.2517116,-0.3667568,0.147946,-0.448924,0.3097224,2.494558,-0.01926116,-0.01934734,-0.02250223,0.02255319,-0.03770611,0.001148438,-0.006884263
10.235,0.02395728,-0.06096948,0.2529329,-0.3677371,0.1476591,-0.4494121,0.3581849,2.427198,-0.019953,-0.01811059,-0.02146989,-0.06740021,0.000101859,-0.02882187,-0.008005439
10.255,0.02382715,-0.06139086,0.2541275,-0.3687185,0.1474028,-0.4498906,0.4063364,2.411555,-0.01930364,-0.01718343,-0.02072478,0.03362253,-0.00530707,0.05479634,-0.00884988
10.275,0.02403595,-0.06172403,0.2553241,-0.3696495,0.1471755,-0.4503664,0.4560902,2.491698,-0.0179352,-0.01663439,-0.02016553,0.1412902,0.01365932,-5.900825e-05,-0.004477062
10.295,0.02473964,-0.0617799,0.2565435,-0.3705534,0.1469691,-0.4508464,0.508536,2.626417,-0.01822011,-0.0162562,-0.02016567,0.1274891,0.01448807,-0.01133719,0.002242422
10.315,0.02416411,-0.06169718,0.2577661,-0.3714572,0.1467923,-0.4513773,0.5633373,2.744627,-0.0179337,-0.01806393,-0.02101625,-0.1745367,-0.03750943,0.02279349,0.001066231
10.335,0.02337348,-0.06180674,0.2589545,-0.3723534,0.1466901,-0.4520339,0.6196952,2.823455,-0.01791306,-0.02412017,-0.02235747,-0.08605593,0.005884488,-0.02196766,-0.005448585
10.355,0.02461278,-0.06209155,0.2601542,-0.3732591,0.1466914,-0.4528409,0.6773952,2.891697,-0.01831639,-0.03186212,-0.02406651,0.06623281,0.04368731,0.005834558,-0.005944163
10.375,0.02487007,-0.06235197,0.2613912,-0.3741874,0.1467739,-0.4537467,0.7362017,2.947791,-0.01881492,-0.03676469,-0.02597193,-0.007366579,-0.03339545,-0.02577585,-0.004472507
10.395,0.02373103,-0.06258152,0.2626063,-0.3751629,0.1468929,-0.4546822,0.7950721,2.951228,-0.02020717,-0.03750049,-0.02778966,-0.002099839,-0.01216618,-0.02991418,-0.004709167
10.415,0.02328953,-0.06286819,0.2637818,-0.3761751,0.1470191,-0.4556053,0.852923,2.900119,-0.02028121,-0.03565952,-0.02923303,-0.07984961,-0.005493802,0.02695241,-0.006757904
10.435,0.02419014,-0.06326999,0.2649688,-0.3771492,0.1471509,-0.4564939,0.9091026,2.816228,-0.01868352,-0.03306503,-0.02972004,-0.02239531,0.04151826,0.03695545,-0.009314027
10.455,0.02504008,-0.06371317,0.2661995,-0.3780543,0.1472955,-0.4573261,0.9632997,2.71662,-0.01751763,-0.03023838,-0.02887268,0.05842525,-0.007520982,0.009679996,-0.008413279
10.475,0.01977329,-0.06409857,0.2673199,-0.3789416,0.1474793,-0.4581096,1.015499,2.616328,-0.01797416,-0.02897313,-0.02734954,-0.001995985,-0.2031503,-0.02794128,-0.007002547
10.495,0.0007163044,-0.06443611,0.2678321,-0.3798536,0.1477386,-0.4588847,1.065924,2.527498,-0.01850525,-0.03057422,-0.02651915,0.0221386,-0.5591293,0.006697714,-0.006498981
10.515,-0.008905565,-0.06481093,0.2676274,-0.3808799,0.1480693,-0.4596503,1.115708,2.495338,-0.02254807,-0.03215871,-0.02595783,-0.1019435,0.1742546,-0.1684102,-0.008494105
10.535,0.005357592,-0.06527232,0.2675387,-0.3820508,0.1484199,-0.4604582,1.166341,2.538157,-0.02428951,-0.03259462,-0.02902598,0.04325294,0.3962717,0.09875245,-0.00996137
10.555,0.02100883,-0.06569242,0.2681978,-0.3831402,0.1487936,-0.4614566,1.218633,2.622627,-0.01928577,-0.03561577,-0.03899642,0.08149464,0.2297781,0.1013972,-0.006842681
10.575,0.03260573,-0.06599961,0.2695382,-0.3839928,0.1493296,-0.4626932,1.273024,2.729397,-0.01481599,-0.04492896,-0.04939859,-0.02559578,0.2340979,0.07739411,-0.005445209
10.595,0.03504529,-0.0662767,0.2712295,-0.3847134,0.1500788,-0.4642807,1.328808,2.80176,-0.01400657,-0.05705389,-0.06568336,0.0178636,-0.1365156,-0.04501753,-0.005638514
