time,vy,px,py,pz,pitch,roll,yaw,wz,vz,wx,wy,ax,ay,az,vx
11.884,0.007036167,0.004252958,0.04514196,0.001557062,-0.07445657,1.280428,-1.871851,1.581093,-0.01109153,-0.7074261,1.627497,0.004133066,0.004727489,0.002898343,-0.01004741
11.904,0.007107579,0.003759911,0.04549555,0.001001792,-0.09710073,1.253019,-1.837799,1.585281,-0.01111927,-0.7043097,1.628354,0.01078524,-0.001871049,-0.004007878,-0.009674453
11.924,0.007212806,0.003276531,0.04585356,0.000442158,-0.1187352,1.224749,-1.802929,1.591367,-0.0112661,-0.7012195,1.629282,-0.01023716,0.006080119,-0.001865171,-0.00966075
11.944,0.007254773,0.002790951,0.04621525,-0.0001202412,-0.1393196,1.195626,-1.767218,1.59834,-0.01122988,-0.698702,1.630266,0.006168422,-0.004401412,0.003313994,-0.009762469
11.964,0.007182702,0.002301235,0.04657619,-0.0006798594,-0.1588171,1.165665,-1.730663,1.605338,-0.01115485,-0.6970109,1.631156,-0.008715849,0.001518566,-0.000312851,-0.009826154
12.032,0.007238451,0.0017994,0.04693671,-0.001238784,-0.1771886,1.134888,-1.693292,1.611375,-0.01120215,-0.6960434,1.631719,-0.008128026,0.0007113662,-0.001579158,-0.01024725
12.052,0.007336719,0.001282809,0.04730109,-0.001795984,-0.1943976,1.103335,-1.655185,1.614012,-0.01108584,-0.6958327,1.631469,0.001364048,0.003219367,0.006231418,-0.01041635
12.072,0.007326016,0.0007688928,0.04766766,-0.002347242,-0.2103956,1.071015,-1.616367,1.616133,-0.01096449,-0.695513,1.631991,0.009677305,-0.00364749,-0.001377222,-0.01014032
12.092,0.007312055,0.0002634766,0.04803361,-0.002893466,-0.2251392,1.037966,-1.576836,1.619673,-0.01088449,-0.6954007,1.632275,-0.007117868,0.003089073,0.004577128,-0.01007633
12.112,0.00738957,-0.0002403009,0.04840115,-0.003433919,-0.2385817,1.004234,-1.536671,1.620791,-0.01073362,-0.6952052,1.632275,0.007180324,1.155138e-05,0.001457783,-0.01007477
12.132,0.007574842,-0.0007429645,0.04877526,-0.003973074,-0.2506854,0.9697538,-1.49586,1.623089,-0.0108326,-0.6955567,1.637612,-0.005460581,0.007399306,-0.005417203,-0.01003178
12.152,0.007599511,-0.001240505,0.04915462,-0.004520468,-0.2613906,0.9344179,-1.454412,1.625039,-0.01106312,-0.6961827,1.650662,0.01193805,-0.006412548,-0.003803552,-0.009869841
12.172,0.007506006,-0.001731001,0.04953225,-0.005077369,-0.2706619,0.8985559,-1.412485,1.625039,-0.01121291,-0.6961827,1.650662,-0.007143567,0.002672342,-0.002188129,-0.009749978
12.192,0.007818892,-0.002210024,0.04991538,-0.005637276,-0.2784357,0.8619859,-1.370041,1.626563,-0.01118336,-0.6968514,1.66274,0.02070457,0.009843125,0.003370327,-0.009410954
12.212,0.007919266,-0.002674674,0.05030883,-0.00618982,-0.2846797,0.8249155,-1.327188,1.627719,-0.01091844,-0.6970148,1.668368,-0.01126799,-0.005828186,0.007226472,-0.009175038
12.232,0.007550733,-0.003151326,0.05069558,-0.006729618,-0.2893873,0.7875405,-1.284054,1.627719,-0.0106735,-0.6970148,1.668368,-0.0173725,-0.008913149,0.002571205,-0.00989105
12.252,0.00764673,-0.003649918,0.05107551,-0.007262785,-0.2925246,0.7499275,-1.240689,1.628816,-0.01065317,-0.6965025,1.669378,0.01090954,0.01275307,-0.001758174,-0.01005262
12.272,0.007817357,-0.004146704,0.05146212,-0.007797521,-0.2940954,0.71223,-1.197197,1.62974,-0.01073624,-0.6957383,1.667163,-0.001558412,-0.005928047,-0.001564662,-0.009818846
12.292,0.007469916,-0.004634246,0.0518443,-0.00833912,-0.2940947,0.6744878,-1.153663,1.62974,-0.01092774,-0.6957383,1.667163,0.006998439,-0.007969543,-0.006095111,-0.009682845
12.312,0.007041194,-0.005120063,0.05220708,-0.008886446,-0.2925478,0.6368759,-1.110295,1.624748,-0.01096532,-0.6950356,1.662956,-0.009676575,-0.009179345,0.004591523,-0.009749799
12.332,0.00713946,-0.005618991,0.05256159,-0.009433213,-0.2894346,0.5994003,-1.06705,1.624748,-0.01090539,-0.6945412,1.662956,-0.008625006,0.01310996,-0.002193944,-0.01020734
12.352,0.007565175,-0.006133485,0.05292921,-0.009976729,-0.2848302,0.5622315,-1.024311,1.610743,-0.01083526,-0.694502,1.657996,0.002021162,0.003918644,0.00499882,-0.01037243
12.372,0.007325969,-0.006647544,0.05330149,-0.01051177,-0.2787117,0.5253589,-0.9818449,1.610743,-0.01056617,-0.694502,1.657996,0.005279476,-0.0134869,0.005764956,-0.01018992
12.392,0.007110332,-0.007154474,0.0536624,-0.01104263,-0.2711693,0.4889399,-0.9400625,1.594829,-0.01066847,-0.6948123,1.652987,-0.001172837,0.004861436,-0.009857091,-0.01008725
12.412,0.007190568,-0.007652467,0.05401992,-0.01158334,-0.2621812,0.4529543,-0.8989419,1.581952,-0.01095987,-0.6949855,1.653171,0.01136421,-0.001652003,-0.001798847,-0.009832467
12.432,0.007263839,-0.008134988,0.05438128,-0.01213392,-0.2516709,0.4173398,-0.8583969,1.574828,-0.01106333,-0.6947351,1.661683,0.003198344,0.00458285,-0.002339433,-0.009468403
12.452,0.007169216,-0.008611346,0.0547421,-0.01268769,-0.239782,0.3822927,-0.8183764,1.574828,-0.01108747,-0.6947351,1.661683,-0.007899686,-0.008367813,0.001373748,-0.009585936
12.472,0.007185398,-0.009096004,0.05510097,-0.01323838,-0.2264277,0.3477519,-0.7789075,1.574587,-0.01094022,-0.694195,1.670005,-0.0006760433,0.009015137,0.004516331,-0.00980033
12.492,0.00737862,-0.009585172,0.05546507,-0.01378128,-0.2116523,0.3137925,-0.7399529,1.578853,-0.0107758,-0.6935637,1.677255,0.002032164,-0.001286263,0.00206037,-0.009766427
12.512,0.007271647,-0.01007268,0.05583133,-0.01431807,-0.1954382,0.2804216,-0.7014997,1.585471,-0.01069562,-0.6929555,1.687849,-0.0007277974,-0.002992635,0.001146919,-0.009733818
12.532,0.007188229,-0.01055978,0.05619282,-0.01485242,-0.1779907,0.2478144,-0.6637393,1.585471,-0.01067862,-0.6929555,1.687849,6.840248e-05,-0.0003441209,-0.0004670443,-0.009750301
12.552,0.007063812,-0.01105313,0.05654912,-0.01538784,-0.159233,0.2159211,-0.6265341,1.592752,-0.01073797,-0.6923734,1.695022,-0.009405564,-0.00463253,-0.001906805,-0.009983731
12.572,0.007184449,-0.01156164,0.05690533,-0.01592612,-0.1393301,0.1848466,-0.5900595,1.592752,-0.01079349,-0.6923734,1.695022,-0.005504215,0.009458005,-0.0003140377,-0.01035648
12.592,0.007409766,-0.01207228,0.05727018,-0.01646892,-0.1183293,0.1546208,-0.554178,1.600022,-0.01091819,-0.6918225,1.694633,0.01698952,-0.0004453266,-0.004674045,-0.01006934
12.612,0.007323334,-0.01256706,0.05763851,-0.01701742,-0.0962775,0.125241,-0.5190335,1.600022,-0.01102189,-0.6918225,1.694633,-0.003084392,-0.003011965,0.0005261224,-0.009721715
12.639,0.007198773,-0.01304938,0.05800157,-0.01756691,-0.07330924,0.09677204,-0.4844848,1.607003,-0.01095768,-0.6913881,1.689386,0.009103836,-0.001970449,0.002042233,-0.009571229
12.652,0.007122657,-0.01352479,0.0583596,-0.018119,-0.0493847,0.06915504,-0.4506541,1.607003,-0.01112614,-0.6913881,1.689386,-0.004062317,-0.00107418,-0.008780671,-0.009445191
12.672,0.007215944,-0.0140106,0.05871807,-0.01867908,-0.02468916,0.04245843,-0.4174044,1.613188,-0.01127669,-0.6912,1.68159,-0.01761946,0.004805611,0.002758711,-0.009987236
12.692,0.007360483,-0.01451008,0.05908248,-0.01923893,0.0008689189,0.01660088,-0.3848355,1.613188,-0.01111764,-0.6914391,1.68159,0.01742754,0.0009759903,0.00360342,-0.009992034
12.712,0.00741833,-0.01500273,0.05945195,-0.01979121,0.02708384,-0.008357407,-0.3528197,1.618366,-0.01097347,-0.6915502,1.672807,-0.006289151,0.001337869,0.002163023,-0.009713574
12.732,0.007531332,-0.01549522,0.05982569,-0.02034037,0.05409176,-0.03249989,-0.321401,1.620071,-0.01099273,-0.6918059,1.673682,-0.004619826,0.003182223,-0.002933065,-0.0099863
12.752,0.007396874,-0.01599706,0.0601989,-0.02089181,0.08215345,-0.05592716,-0.2906663,1.616621,-0.0110652,-0.6918498,1.690339,0.0005752571,-0.008560554,3.418261e-05,-0.01008741
12.772,0.00726711,-0.01649463,0.0605655,-0.0214419,0.111218,-0.07862535,-0.2606652,1.609772,-0.01093815,-0.6916325,1.70619,0.01031305,0.003369998,0.005047738,-0.009815206
12.792,0.00713939,-0.01698465,0.06092566,-0.02199064,0.1410084,-0.1005275,-0.2312137,1.610476,-0.01101131,-0.6912907,1.70957,-0.009126411,-0.008478835,-0.007974248,-0.00978554
12.812,0.006935858,-0.01748417,0.06127753,-0.02254445,0.1714332,-0.1216348,-0.2024792,1.601083,-0.0111411,-0.6910224,1.710278,-0.007264669,0.0003375986,0.002782625,-0.01019532
12.832,0.007010237,-0.01799839,0.06162619,-0.02309839,0.2023304,-0.1419458,-0.1744715,1.589235,-0.01101664,-0.6909595,1.70483,0.0001380898,0.002637548,0.002196054,-0.01037348
12.892,0.007224751,-0.01949312,0.06270818,-0.02474012,0.298068,-0.1984008,-0.0948708,1.541684,-0.01081933,-0.6896894,1.708489,0.003638138,-0.005169491,-0.004274234,-0.009379837
12.912,0.007118604,-0.01996805,0.06306676,-0.02528919,0.3313375,-0.2158179,-0.06967186,1.529668,-0.01114335,-0.6887807,1.726263,-0.01313061,0.0009236422,-0.008686576,-0.009617149
12.932,0.007378436,-0.02044764,0.06342918,-0.02584634,0.365586,-0.2325655,-0.0447996,1.529705,-0.01114265,-0.6880087,1.755019,0.01515443,0.009469605,0.008714389,-0.009566554
12.952,0.007647433,-0.02092712,0.06380483,-0.02639582,0.4006827,-0.2486254,-0.02018496,1.531087,-0.01083628,-0.6875757,1.778484,-0.01700299,0.001290307,0.003540549,-0.009612768
12.972,0.007517165,-0.02141798,0.06418395,-0.02694366,0.4366082,-0.263982,0.00438413,1.540772,-0.0110773,-0.6875111,1.80216,0.000649051,-0.006501036,-0.01318152,-0.01002162
12.992,0.007275538,-0.02191024,0.06455376,-0.02750741,0.4734083,-0.2786152,0.0288465,1.544844,-0.0114728,-0.6879048,1.82925,0.01346671,-0.003164034,-0.002638415,-0.009668723
13.012,0.00708042,-0.02239341,0.06491266,-0.02807772,0.5108601,-0.2925053,0.05338482,1.555263,-0.01133997,-0.6887471,1.846278,-0.01305115,-0.0046407,0.007951658,-0.009658334
13.032,0.007357513,-0.02287825,0.06527361,-0.02863648,0.5488853,-0.3056202,0.07799537,1.562147,-0.01101017,-0.6896109,1.860455,0.00997578,0.0157244,0.005240589,-0.009735218
13.052,0.007510591,-0.02336371,0.06564531,-0.02919736,0.5876026,-0.3178954,0.1027635,1.568898,-0.01142515,-0.690125,1.88173,-0.00789438,-0.009601271,-0.02183988,-0.009683184
13.072,0.007226627,-0.02385233,0.06601375,-0.02977387,0.6268436,-0.3292819,0.1276626,1.569998,-0.01163507,-0.6902098,1.89575,0.000758414,-0.001757308,0.01344293,-0.009861583
13.092,0.007160556,-0.02434803,0.06637342,-0.03034208,0.6663724,-0.3397474,0.1527872,1.571684,-0.01109342,-0.6899798,1.899139,-0.004952875,-0.0008855157,0.00822337,-0.009966444
13.112,0.007128798,-0.02485352,0.06673065,-0.03089392,0.7062313,-0.3492144,0.178271,1.574335,-0.01098002,-0.6897608,1.905836,-0.006513177,-0.0003848404,-0.00368762,-0.0102531
13.132,0.007185752,-0.02536578,0.06708852,-0.03144117,0.7463248,-0.3576163,0.20428,1.579618,-0.01091014,-0.6896662,1.908892,0.007141128,0.002663031,0.006483001,-0.0102374
13.152,0.007040611,-0.0258725,0.06744418,-0.03198425,0.7863784,-0.3649266,0.2308194,1.580647,-0.01081308,-0.6895801,1.899126,0.001101482,-0.008468674,-0.002600956,-0.01003133
13.172,0.007186455,-0.02636992,0.06779986,-0.03252798,0.8264204,-0.3710258,0.2581292,1.585786,-0.01093605,-0.6895748,1.891953,0.005539401,0.0143024,-0.002317491,-0.009865311
13.192,0.007855679,-0.02686068,0.06817591,-0.033074,0.8667339,-0.3756573,0.2864197,1.588154,-0.01090458,-0.690032,1.900659,-0.00154134,0.01246659,0.003576066,-0.009765358
13.212,0.008178279,-0.027351,0.06857676,-0.03361757,0.907338,-0.378579,0.315886,1.586721,-0.01083833,-0.6905241,1.911964,-0.001745801,0.0004374227,-0.000925808,-0.009847537
13.232,0.008078791,-0.02784553,0.06898319,-0.03416068,0.9482682,-0.3794614,0.3469638,1.589325,-0.01088615,-0.6911061,1.927034,-0.00169337,-0.004416948,-0.0009873652,-0.009933517
13.292,0.008096448,-0.02935395,0.07018044,-0.0358129,1.071335,-0.3663884,0.4525922,1.563151,-0.01106814,-0.6922351,1.931413,-0.01361197,-0.003053282,0.004948217,-0.01035879
13.312,0.008003605,-0.02987293,0.07058295,-0.03636944,1.112076,-0.3548552,0.4938121,1.549293,-0.01119337,-0.6919033,1.934836,0.01196242,-0.0006604634,-0.009957266,-0.01040003
13.332,0.007943897,-0.03038014,0.07098164,-0.03693417,1.152514,-0.338183,0.5395694,1.53308,-0.01139616,-0.6912398,1.933283,0.008497628,-0.001727846,0.001845719,-0.009888531
13.352,0.007891318,-0.03086741,0.07137752,-0.03749898,1.192385,-0.3151168,0.591218,1.519315,-0.01119604,-0.6903569,1.923335,0.002958665,-0.0003753036,0.006159145,-0.009602123
13.372,0.007762752,-0.03134388,0.07176887,-0.03803982,1.231616,-0.2834389,0.651197,1.515728,-0.01043725,-0.6894135,1.9191,0.002844164,-0.004767354,0.0241925,-0.009457053
13.392,0.007800747,-0.03182304,0.07215795,-0.03855394,1.269947,-0.2401292,0.7226033,1.514478,-0.01012777,-0.6885427,1.914042,-0.01293269,0.00628719,-0.01181357,-0.009709268
13.412,0.007900362,-0.03231027,0.07255048,-0.03907565,1.306927,-0.1809766,0.8096839,1.513064,-0.01074041,-0.6878825,1.903609,0.01011291,-0.002302621,-0.01269181,-0.009779762
13.432,0.007656894,-0.0327945,0.0729394,-0.03961748,1.342137,-0.09862495,0.9198238,1.513002,-0.01093298,-0.6875471,1.905458,-0.00249704,-0.007436112,0.004988916,-0.009589365
13.454,0.01749858,-0.03328382,0.07356829,-0.04014038,1.374634,0.01786538,1.06398,1.513316,-0.009982776,-0.6865615,1.915285,-0.0132653,0.4011036,0.03301932,-0.009983423
13.474,0.1279059,-0.03389641,0.0772034,-0.04229639,1.402291,0.180352,1.253973,1.50873,-0.07625784,-0.674193,1.90077,-0.1682102,4.015188,-2.684022,-0.01452031
13.494,0.3286653,-0.03483269,0.08861769,-0.04946431,1.422924,0.4011961,1.502265,1.50873,-0.2104589,-0.674193,1.90077,-0.1682102,4.015188,-2.684022,-0.02293082
13.514,0.3442428,-0.03646934,0.1054404,-0.06286251,1.433072,0.6678892,1.796546,1.513457,-0.3254688,-0.6501462,1.847306,-0.6159583,-3.392084,-1.916374,-0.04253504
13.534,0.2213226,-0.03942945,0.1195795,-0.07941746,1.431546,0.9424309,2.099191,1.535098,-0.3367291,-0.625479,1.784633,-0.7174127,-1.524725,1.465963,-0.07586931
13.554,0.2277386,-0.04381341,0.1308061,-0.09455219,1.418936,1.185378,2.370551,1.547752,-0.2686605,-0.5905431,1.770287,-0.2273866,1.781366,1.256781,-0.09948929
13.574,0.2308039,-0.04864461,0.1422696,-0.1061788,1.398142,1.372177,2.585847,1.546451,-0.1964033,-0.5497803,1.743894,0.4566081,-1.658757,1.63351,-0.09375875
13.594,0.1666429,-0.05280204,0.1522058,-0.1147732,1.372368,1.508798,2.751029,1.544468,-0.1473724,-0.5351127,1.718763,0.392205,-0.907682,0.3277263,-0.07253842
13.614,0.1660929,-0.05696726,0.1605242,-0.1220439,1.344151,1.609241,2.880316,1.554732,-0.1434569,-0.5521972,1.674328,-1.253491,0.8856806,-0.171108,-0.09407057
13.634,0.1804268,-0.06214901,0.1691872,-0.1288674,1.31496,1.685034,2.985179,1.562801,-0.129482,-0.5832841,1.614849,0.488343,-0.3123224,0.7301034,-0.1131993
13.654,0.1468103,-0.06686354,0.1773681,-0.1352212,1.285391,1.744081,3.07341,1.566441,-0.1246711,-0.6187077,1.557338,1.024354,-1.03234,-0.5376663,-0.07538183
13.674,0.1575699,-0.06978554,0.1849776,-0.1415556,1.255671,1.790905,-3.13392,1.556184,-0.1287043,-0.6473114,1.506179,0.3309784,1.462725,0.3763399,-0.04149851
13.694,0.1754058,-0.07180161,0.193302,-0.1473893,1.225956,1.828286,-3.067558,1.549765,-0.1046434,-0.6659176,1.4598,-0.2368015,-0.7492885,0.5860937,-0.03914408
13.714,0.09258138,-0.07482737,0.2000017,-0.1530045,1.196073,1.858507,-3.007875,1.56978,-0.1199674,-0.6841938,1.431084,-1.472876,-2.563689,-1.199053,-0.08188602
13.734,0.1120275,-0.08123752,0.2051169,-0.1597338,1.165358,1.88343,-2.9525,1.616269,-0.149203,-0.7146372,1.439803,-2.232484,3.341535,0.02962931,-0.17452
13.754,0.2700487,-0.09275253,0.2146688,-0.1676635,1.133331,1.904691,-2.898351,1.737441,-0.1679835,-0.7684049,1.471083,-2.229935,2.979314,-0.7808492,-0.2860805
13.774,0.3148734,-0.1094775,0.2292919,-0.1777487,1.10003,1.923502,-2.843019,1.921506,-0.2354273,-0.8433545,1.494266,-1.643546,-1.186327,-1.916902,-0.3829175
13.794,0.2892352,-0.1288771,0.2443946,-0.1911719,1.065367,1.94084,-2.786622,2.054336,-0.3014972,-0.9416512,1.511382,1.237495,0.1607991,-0.7258961,-0.3930688
13.814,0.2170235,-0.1460135,0.2570511,-0.2063467,1.029263,1.957357,-2.726547,2.288748,-0.305497,-1.060984,1.518508,2.789833,-3.049267,0.5659069,-0.2923856
13.834,0.1356412,-0.1591385,0.2658677,-0.2196174,0.9921454,1.972783,-2.663403,2.504168,-0.2253318,-1.171665,1.497458,-0.3989229,-0.2060266,2.640699,-0.2326128
13.854,0.1499508,-0.1711011,0.2730075,-0.2305161,0.9545689,1.986589,-2.60147,2.526369,-0.2106153,-1.255408,1.451822,-0.1323111,0.7784132,-2.05204,-0.2458937
13.874,0.1417667,-0.1832347,0.2803004,-0.2425704,0.9169791,1.998501,-2.538937,2.647685,-0.2715544,-1.314249,1.390483,0.3900972,-1.105777,-0.3855217,-0.239449
13.894,0.1122038,-0.1943787,0.2866497,-0.25611,0.8798719,2.00831,-2.476655,2.731038,-0.2700307,-1.345571,1.314727,0.935368,-0.07673994,0.4464674,-0.2063124
13.914,0.1312592,-0.2047088,0.2927363,-0.2699228,0.8438055,2.016103,-2.415643,2.755468,-0.2824812,-1.350857,1.222579,-0.9585427,0.8389561,-0.9444843,-0.2068918
13.934,0.1278912,-0.2162468,0.299215,-0.2861929,0.8092283,2.022158,-2.357132,2.703429,-0.3683214,-1.335001,1.118748,-0.9508596,-0.973675,-2.489126,-0.2546268
13.954,0.0717597,-0.2289653,0.3042063,-0.3035198,0.7763752,2.026759,-2.299971,2.69487,-0.324757,-1.304757,1.012178,0.9714026,-1.271586,4.231703,-0.2541132
13.974,0.002093248,-0.2409362,0.3060526,-0.3182427,0.7454242,2.030531,-2.24274,2.732123,-0.2641586,-1.271695,0.8935913,0.2041917,-1.515071,-1.807767,-0.2247234
13.994,-0.06064463,-0.252204,0.3045888,-0.3345418,0.7167558,2.034179,-2.184584,2.786767,-0.3878045,-1.229243,0.7509937,-0.2547754,-0.9944442,-3.138069,-0.225988
14.014,-0.09333318,-0.2641696,0.3007394,-0.35407,0.6909271,2.037619,-2.126497,2.793721,-0.3933246,-1.149758,0.6037645,-0.8110946,-0.3130976,2.917267,-0.2526347
14.034,0.04028311,-0.2779703,0.2994132,-0.371949,0.6684747,2.040028,-2.068944,2.802688,-0.3218334,-1.017909,0.4837697,-1.059371,5.657749,-0.05762274,-0.2993963
14.054,0.2998561,-0.2944074,0.3079166,-0.3872615,0.6496145,2.04111,-2.012997,2.764901,-0.2906673,-0.8604039,0.3892585,-1.288276,4.72517,1.304268,-0.3580875
14.074,0.3982179,-0.3123019,0.3253685,-0.401565,0.6342125,2.041541,-1.95883,2.696093,-0.2814723,-0.7119295,0.2949124,1.304167,-0.790698,-0.9364712,-0.3576902
14.094,0.329073,-0.3282701,0.3435507,-0.4160589,0.621872,2.042322,-1.9054,2.649235,-0.2982854,-0.5885674,0.1886353,1.76182,-1.975097,0.2639504,-0.2810405
14.114,0.2581264,-0.3405916,0.3582307,-0.431282,0.6117338,2.044499,-1.853111,2.552031,-0.3106372,-0.5101068,0.06931212,1.007036,-0.8627708,-0.7580254,-0.2118191
14.134,0.2579728,-0.3498067,0.3711332,-0.4473134,0.6030874,2.04891,-1.800214,2.519499,-0.3306184,-0.4642378,-0.06584225,1.194343,0.8566297,-0.04122263,-0.1567846
14.154,0.2461306,-0.3565177,0.3837358,-0.4642481,0.5958461,2.055946,-1.747989,2.413227,-0.3467706,-0.4133635,-0.2114142,0.6108974,-1.33032,-0.6048648,-0.1116536
14.174,0.1786939,-0.3616672,0.3943564,-0.4819033,0.5898744,2.065612,-1.696367,2.311445,-0.3594384,-0.3557169,-0.3513089,0.08224069,-1.367145,0.09815335,-0.09432518
14.194,0.1951698,-0.3668355,0.403703,-0.4998571,0.5846509,2.07778,-1.643546,2.304353,-0.3587158,-0.3101127,-0.4782581,-0.805599,2.026182,-0.06924927,-0.1124091
14.214,0.2828627,-0.3728732,0.4156538,-0.5177736,0.5795575,2.092223,-1.591407,2.210272,-0.3579405,-0.2826141,-0.5908436,0.137981,1.481533,0.1002588,-0.1290996
14.234,0.2825161,-0.3781862,0.4297883,-0.5353015,0.5739322,2.10833,-1.540426,2.110208,-0.3431779,-0.2780269,-0.6766133,1.689115,-1.4954,0.4902439,-0.08342219
14.254,0.2778507,-0.380809,0.4437975,-0.5523086,0.5669038,2.125498,-1.491258,1.995146,-0.3371041,-0.311272,-0.7408433,0.7882183,1.308786,-0.2472907,-0.02148887
14.274,0.3562363,-0.3812572,0.4596497,-0.5703893,0.5577204,2.14348,-1.444244,1.871587,-0.3861234,-0.3785497,-0.8040166,0.2139136,1.826636,-1.713479,0.00356443
14.294,0.3741626,-0.3808375,0.4779097,-0.5908201,0.5463487,2.161937,-1.398599,1.798428,-0.4311094,-0.4453855,-0.8618048,0.1724354,-1.109583,-0.0859622,0.01322315
14.314,0.3186834,-0.3799608,0.4952308,-0.612483,0.5342761,2.179643,-1.353526,1.798428,-0.4354075,-0.4453855,-0.8618048,0.1724354,-1.109583,-0.0859622,0.02184493
14.334,0.2421612,-0.3778714,0.5092519,-0.6332107,0.5206395,2.197164,-1.30866,1.802526,-0.3936974,-0.4826794,-0.8974144,1.422919,-1.951306,1.754369,0.06172877
14.354,0.263279,-0.3740258,0.5218879,-0.6519978,0.5062851,2.214042,-1.263862,1.825575,-0.3577895,-0.4825927,-0.9071714,-0.208191,2.796019,-0.3180569,0.09209698
14.374,0.3164582,-0.3692505,0.5363813,-0.6709776,0.4918252,2.23036,-1.219183,1.843632,-0.4014046,-0.4525884,-0.9118547,0.4808444,-0.6688489,-1.426543,0.09891331
14.394,0.2499165,-0.3635561,0.5505407,-0.6895549,0.477501,2.246492,-1.174236,1.871789,-0.3416872,-0.4059449,-0.9262533,0.7172644,-1.992822,3.815239,0.128866
14.414,0.1953499,-0.3555174,0.5616723,-0.7039113,0.4634486,2.262494,-1.129031,1.897749,-0.2325675,-0.3515824,-0.9376186,1.835267,-0.1898392,0.5495484,0.1926793
14.434,0.2521369,-0.3433842,0.5728595,-0.7164826,0.4498711,2.278578,-1.08374,1.910143,-0.2702866,-0.2837457,-0.9495804,2.163466,2.461315,-2.058312,0.2926476
14.454,0.3467599,-0.3286912,0.587832,-0.7301893,0.4371103,2.295258,-1.037865,1.936121,-0.2779785,-0.1891195,-0.9691422,-2.066451,1.323606,1.750633,0.295073
14.474,0.3552813,-0.3164732,0.605383,-0.7424779,0.4256811,2.312375,-0.9906782,2.001726,-0.2135669,-0.07454166,-0.9622218,-1.990569,-0.9827509,0.8258301,0.1936475
14.494,0.2934602,-0.3096411,0.6216015,-0.7515956,0.4160405,2.329064,-0.9412874,2.128924,-0.1511423,0.0365788,-0.9008474,-2.569912,-1.490091,1.671157,0.0796355
14.514,0.1421955,-0.3075427,0.6324929,-0.7573623,0.4082897,2.344685,-0.8895894,2.272419,-0.07952325,0.1289054,-0.8037549,-0.4434278,-4.5605,1.193604,0.004301995
14.534,0.08648102,-0.306319,0.6382098,-0.7593765,0.4023373,2.359194,-0.8376122,2.313211,-0.001048215,0.2069625,-0.7003588,2.057068,2.331922,1.945397,0.04464301
14.554,0.3286769,-0.3019167,0.6485888,-0.7583374,0.3975042,2.372961,-0.785441,2.340987,0.0426149,0.261261,-0.6264176,1.415181,7.355915,-0.1988725,0.1314492
14.574,0.4337555,-0.2943642,0.6676496,-0.757049,0.3924862,2.385913,-0.7337731,2.334604,0.008920732,0.2607388,-0.59374,0.152995,-3.152773,-1.148894,0.1706536
14.594,0.3115277,-0.2869509,0.6862816,-0.7579872,0.3865397,2.397088,-0.6815658,2.398643,-0.04644936,0.1995495,-0.5620985,-1.944035,-1.736338,-1.065909,0.1258776
14.614,0.2882432,-0.2830306,0.7012759,-0.7620564,0.3794398,2.405596,-0.6291955,2.46004,-0.1163184,0.09651909,-0.5221006,-1.853604,0.8049582,-1.728851,0.03093663
14.634,0.2141614,-0.2827407,0.713836,-0.7693473,0.3709238,2.411294,-0.5766555,2.523133,-0.1753187,-0.02311448,-0.5012047,-0.157603,-3.768231,-0.6311619,-0.01934355
14.654,0.198013,-0.2835206,0.7241404,-0.7785498,0.3609624,2.414658,-0.5247839,2.533939,-0.1927813,-0.1268429,-0.5067873,0.4573022,3.122294,-0.06734223,-0.01185107
14.674,0.266108,-0.2825809,0.7357433,-0.787055,0.3496108,2.416221,-0.4738837,2.518358,-0.1474262,-0.2075406,-0.5335326,1.994321,-0.3984951,1.881544,0.04943953
14.694,0.2646884,-0.2769863,0.7490132,-0.7929751,0.3367758,2.41589,-0.424931,2.453694,-0.08938047,-0.2929177,-0.5714393,3.001956,0.3417136,0.4402868,0.1743464
14.714,0.2325148,-0.266374,0.7614433,-0.7964209,0.3227932,2.413211,-0.3778445,2.398161,-0.0484489,-0.3899146,-0.5942299,0.03000922,-1.628658,1.196976,0.2501456
14.734,0.0867143,-0.2551192,0.769424,-0.7986155,0.3086454,2.408041,-0.3308831,2.42882,-0.0393369,-0.4760925,-0.5783456,-2.034077,-4.203364,-0.8324959,0.2000439
14.754,-0.004780144,-0.2474958,0.7714724,-0.8015861,0.295481,2.400804,-0.2830197,2.501333,-0.07948277,-0.5283464,-0.5232477,-1.771912,0.5435864,-0.7733386,0.1048941
14.774,0.1213546,-0.2447435,0.7743868,-0.8056828,0.2841678,2.392214,-0.2320427,2.672242,-0.08438398,-0.5423052,-0.4423355,-2.215975,4.501804,0.5772896,0.005196959
14.794,0.2646,-0.2454871,0.7840356,-0.809399,0.275017,2.382735,-0.1780776,2.829805,-0.06426961,-0.539395,-0.3553359,0.6105297,1.228013,0.2272855,-0.03493917
14.814,0.2666147,-0.24744,0.797316,-0.814237,0.2675676,2.372163,-0.1231813,2.887263,-0.1292478,-0.559601,-0.2919549,-0.9400602,-1.147426,-2.826413,-0.04317742
14.834,0.1644408,-0.2499078,0.8080924,-0.8231972,0.2608694,2.359974,-0.06850405,2.893838,-0.2291563,-0.6179383,-0.2771894,0.4457179,-2.939533,-1.169929,-0.05553598
14.854,0.01139878,-0.2522125,0.8124884,-0.8347034,0.2542279,2.346344,-0.01506009,2.846549,-0.2310969,-0.6725784,-0.304382,0.3095717,-3.182147,1.092306,-0.03665374
14.874,-0.08778637,-0.2546327,0.8105787,-0.8455668,0.2472375,2.331854,0.03743277,2.805149,-0.2034371,-0.6982127,-0.3574941,-1.249584,-0.7852591,0.01408318,-0.06015404
14.894,-0.1310826,-0.257839,0.805107,-0.8549902,0.2395338,2.316796,0.08938133,2.779584,-0.1734991,-0.7051044,-0.430879,0.9318483,-0.94659,1.183438,-0.06809742
14.914,-0.1152322,-0.2606988,0.7989491,-0.8630251,0.2310013,2.301391,0.1416516,2.793792,-0.147897,-0.6951625,-0.5103174,-0.0596417,1.580604,-0.1593531,-0.04629225
14.934,-0.04552713,-0.2641474,0.7949302,-0.870449,0.2218885,2.286097,0.19439,2.809362,-0.1490548,-0.6588046,-0.5740808,-1.754755,1.2076,0.1130412,-0.09165216
14.954,0.004497409,-0.2690911,0.7939044,-0.8779144,0.2124995,2.271447,0.2469309,2.785607,-0.1495639,-0.5954183,-0.6148661,1.177006,0.7933817,-0.1334079,-0.1060959
14.974,-0.01209738,-0.2720266,0.7937144,-0.8855488,0.2029563,2.257532,0.2984383,2.719528,-0.1558094,-0.5273405,-0.6431222,2.613879,-1.457173,-0.116411,-0.01132376
14.994,-0.09755722,-0.2698567,0.7909731,-0.8931874,0.1931897,2.244133,0.34786,2.60352,-0.1497371,-0.4679861,-0.6718871,1.763714,-1.96122,0.3593045,0.09811607
15.014,-0.1518136,-0.2628235,0.7847388,-0.8999159,0.1831886,2.2314,0.3954219,2.497715,-0.1194032,-0.4012164,-0.6932394,1.64015,-0.2090346,0.8540483,0.1832127
15.034,-0.1680533,-0.2529362,0.7767421,-0.9049212,0.1732242,2.219963,0.4426409,2.46282,-0.08080927,-0.3115145,-0.6843271,-0.4775271,-0.4405525,0.6897107,0.2122782
15.054,-0.1685226,-0.2441539,0.7683277,-0.9082365,0.1636624,2.210236,0.4904131,2.470657,-0.05180045,-0.2132614,-0.642856,-2.45304,0.4217807,0.4706417,0.1390141
15.08,-0.1765002,-0.2393468,0.7597022,-0.911473,0.1548506,2.202131,0.5400272,2.545521,-0.07765799,-0.131145,-0.5807469,-0.9766418,-0.7408854,-1.504943,0.05327202
15.1,-0.1738398,-0.2366119,0.7509437,-0.9165901,0.1470881,2.195365,0.5911494,2.607578,-0.127029,-0.07437885,-0.5070858,1.090654,0.8472993,-0.4698975,0.05612234
15.12,-0.09995812,-0.2330218,0.7440987,-0.9233897,0.1399247,2.188849,0.6422301,2.60122,-0.1449532,-0.05595122,-0.4788579,0.1637022,2.107969,-0.247071,0.08748126
15.14,-0.03494272,-0.2282583,0.7407262,-0.9308759,0.1334769,2.183362,0.6930143,2.577171,-0.15449,-0.01385354,-0.4215926,0.4595167,0.4926474,-0.134399,0.1030617
15.16,-0.04442746,-0.2230351,0.7387419,-0.9383266,0.1270045,2.179473,0.7434425,2.547212,-0.1435432,0.06783129,-0.3706501,-0.3474164,-0.8720372,0.5722697,0.1058642
15.18,-0.1235687,-0.2176888,0.734542,-0.9442035,0.119302,2.178241,0.7942377,2.547878,-0.0915287,0.223921,-0.3194045,0.4323779,-2.293614,1.50831,0.1079883
15.2,-0.1904158,-0.2123087,0.7266924,-0.9471398,0.1092136,2.180127,0.8455161,2.553733,-0.02592468,0.4328315,-0.2757641,-0.4633513,-0.3802698,1.11585,0.1072139
15.22,-0.1683756,-0.2054479,0.7177226,-0.9481128,0.09660224,2.184343,0.8967129,2.538726,-0.01299402,0.6176306,-0.2457624,2.863535,1.261878,-0.5986237,0.1672185
15.24,-0.0959787,-0.1959641,0.7111137,-0.949667,0.08215927,2.189647,0.9473523,2.508821,-0.04917258,0.7352898,-0.2258968,-1.066943,1.633999,-0.8485191,0.2121333
15.26,-0.03603902,-0.1870644,0.7078133,-0.9534306,0.06639246,2.195095,0.9967526,2.45029,-0.1013716,0.804549,-0.2200126,-1.664136,0.7635878,-1.239442,0.1438563
15.28,-0.009963468,-0.180302,0.7066632,-0.959587,0.04948922,2.200328,1.044736,2.384452,-0.1448854,0.8573108,-0.219164,0.9753393,0.2794344,-0.501108,0.1266364
15.3,-0.05645981,-0.1742123,0.7050027,-0.9670895,0.03121892,2.205655,1.091376,2.32171,-0.1552096,0.9290052,-0.2069855,-1.362595,-2.139288,0.08813748,0.116955
15.32,-0.194855,-0.1678691,0.6987198,-0.9735998,0.01084885,2.21161,1.137564,2.303518,-0.1052057,1.045757,-0.1816757,2.155285,-3.396519,1.912022,0.1367723
15.34,-0.2801101,-0.1587586,0.6868457,-0.9770058,-0.01197501,2.218321,1.182429,2.243835,-0.03103501,1.180603,-0.1481246,1.47974,-0.01368679,1.054804,0.2276479
15.36,-0.2505108,-0.146354,0.6735801,-0.9782032,-0.03675901,2.225389,1.226787,2.226862,-0.0168622,1.283944,-0.113823,0.1558028,1.197659,-0.4878919,0.2685364
15.38,-0.1593128,-0.1338562,0.6633346,-0.980332,-0.06278649,2.23231,1.269889,2.172665,-0.06828571,1.344219,-0.0846274,-1.642368,2.450262,-1.569049,0.2313723
15.4,-0.0654175,-0.1245254,0.6577163,-0.9850878,-0.0896842,2.238904,1.312055,2.133743,-0.1219469,1.383767,-0.05550835,-1.938033,1.305549,-0.5773972,0.1418623
15.42,-0.02160576,-0.1190295,0.6555407,-0.9913189,-0.1174247,2.24525,1.354021,2.131422,-0.1272975,1.422758,-0.01993742,-0.6175844,0.4469207,0.3633734,0.07797187
15.44,0.02713199,-0.1159955,0.6556788,-0.997458,-0.1461576,2.251318,1.395373,2.10778,-0.1182664,1.46814,0.01510399,-0.7657723,1.502589,-0.002128792,0.04338795
15.46,0.06383342,-0.1145916,0.657953,-1.003279,-0.1761389,2.256966,1.436205,2.087218,-0.1145631,1.524577,0.04397235,-0.4589775,-0.03453229,0.1502575,0.0127692
15.48,0.02611585,-0.1135977,0.6602017,-1.008788,-0.2075562,2.262045,1.476869,2.081905,-0.1058221,1.589517,0.06858588,1.02762,-1.47417,0.1993862,0.02698527
15.5,-0.01998033,-0.1099749,0.6603551,-1.01294,-0.2405302,2.266288,1.516621,2.035064,-0.06024844,1.659978,0.0843519,2.610129,-0.3696768,1.623558,0.117929
15.52,-0.01947481,-0.1013933,0.6593687,-1.015671,-0.2750051,2.269298,1.556066,2.01087,-0.04899741,1.728251,0.08609842,1.686059,0.3898975,-1.173517,0.2253337
15.54,0.01834546,-0.09085571,0.6593404,-1.019647,-0.3104947,2.270725,1.594936,1.964344,-0.110049,1.774668,0.07666325,-2.852595,1.122913,-1.268547,0.1961703
15.56,0.1072372,-0.08457974,0.66248,-1.025998,-0.3465883,2.270369,1.634289,1.962183,-0.143954,1.804228,0.06226472,-2.799481,2.432755,-0.08765292,0.05486845
15.58,0.2089194,-0.08355886,0.6703839,-1.033412,-0.3832469,2.268126,1.674026,1.947063,-0.1526452,1.835843,0.04821587,0.04341698,1.634533,-0.2599946,-0.01403316
15.6,0.213431,-0.08460735,0.6809427,-1.041072,-0.4204043,2.263947,1.714657,1.95002,-0.1537194,1.867981,0.03809327,-0.5983512,-1.454067,0.2170246,-0.02790652
15.62,0.131489,-0.08554792,0.6895657,-1.048507,-0.458012,2.257768,1.755571,1.914584,-0.143692,1.901361,0.03175265,1.325957,-1.823615,0.1840708,-0.009716366
15.68,0.2314161,-0.08217457,0.7129981,-1.070162,-0.5730648,2.226211,1.880531,1.800124,-0.1539228,1.998356,0.02996379,-0.2061957,1.524713,0.1182646,-0.01192427
15.7,0.3056126,-0.08373991,0.7264238,-1.077773,-0.611295,2.211537,1.924768,1.802415,-0.1505036,2.006113,0.04716491,-1.344414,1.443145,0.01850393,-0.05068951
15.72,0.3666025,-0.08761667,0.7432292,-1.085225,-0.6488096,2.194922,1.971141,1.829345,-0.1475819,1.991667,0.06668958,-0.8032457,0.9964514,0.09836431,-0.104381
15.74,0.4366983,-0.09366905,0.7633117,-1.092852,-0.6850466,2.176337,2.019736,1.85501,-0.1575095,1.952283,0.08115471,-0.5300854,1.807381,-0.4954684,-0.1377143
15.76,0.5242425,-0.1017803,0.7873352,-1.100816,-0.7198498,2.155587,2.070887,1.887355,-0.1610462,1.910231,0.09066453,-1.430724,1.694387,0.3539985,-0.1867345
15.78,0.5646079,-0.1097174,0.8145565,-1.108574,-0.7534079,2.132349,2.124651,1.907755,-0.1492519,1.883611,0.09992853,3.670135,-0.07977193,0.1177724,-0.1307492
15.8,0.4949535,-0.1156034,0.8410455,-1.116032,-0.7855613,2.106193,2.181442,1.929677,-0.1490833,1.859836,0.09939958,-2.62781,-2.706406,-0.1110255,-0.1046911
15.82,0.4074065,-0.1220487,0.8636045,-1.123477,-0.8154016,2.076466,2.241282,1.925331,-0.1487313,1.815248,0.06176634,0.690525,-0.7954739,0.125104,-0.1531233
15.84,0.4114194,-0.1277207,0.8840752,-1.131652,-0.8418824,2.042652,2.304228,1.901357,-0.1782375,1.749244,-0.01767359,2.484221,0.9559898,-1.305351,-0.07375463
15.86,0.4640678,-0.1307955,0.9059624,-1.141921,-0.8644008,2.004924,2.370185,1.876777,-0.2325591,1.671807,-0.1129519,-1.503494,1.149947,-0.8675137,-0.04923647
15.92,0.6234936,-0.145832,0.9877679,-1.177493,-0.9093751,1.876041,2.594343,2.277842,-0.1974606,1.489903,-0.2832541,0.2973469,0.5111501,1.463077,-0.1543841
15.94,0.6476505,-0.1530907,1.019547,-1.185984,-0.9185974,1.829663,2.676624,2.277842,-0.1421699,1.462315,-0.2832541,0.4394361,0.4551287,0.7485524,-0.1359645
15.96,0.6897303,-0.159492,1.052981,-1.192732,-0.9246605,1.784383,2.762974,2.514401,-0.1277476,1.373237,-0.2838731,0.1956425,1.228061,-0.171661,-0.1200876
15.98,0.7157204,-0.1661163,1.088117,-1.199312,-0.9277144,1.743264,2.849444,2.680722,-0.1354586,1.21725,-0.2625285,-1.187474,-0.1884578,-0.1367815,-0.1448834
16.0,0.7142143,-0.1740515,1.123866,-1.206766,-0.9282359,1.708574,2.932649,2.772594,-0.1626801,1.014127,-0.2326226,0.08191091,0.1282135,-0.9520769,-0.1725224
16.02,0.7151254,-0.1823803,1.159599,-1.215194,-0.9267728,1.681247,3.010532,2.801591,-0.1744735,0.7957201,-0.2108582,0.3937323,-0.09176838,0.4803411,-0.1606313
16.04,0.7144744,-0.1893871,1.195339,-1.2231,-0.9237771,1.661477,3.082207,2.794883,-0.141734,0.5779886,-0.2057122,1.245785,0.06572973,0.829239,-0.1196434
16.06,0.7137222,-0.1936648,1.231044,-1.229328,-0.9195851,1.649258,-3.135917,2.767043,-0.107395,0.3636997,-0.2195273,1.481411,-0.09581697,0.5443196,-0.05146351
16.08,0.6818957,-0.1952293,1.265934,-1.234294,-0.9144098,1.644611,-3.078062,2.708989,-0.09125341,0.1502385,-0.2538134,0.1324431,-1.177244,0.1013448,-0.01111715
16.1,0.5811614,-0.1959389,1.297511,-1.239168,-0.9084045,1.647022,-3.026869,2.655531,-0.103686,-0.04685251,-0.3057545,-0.3783249,-2.852129,-0.5986474,-0.01726419
16.12,0.5319581,-0.1973741,1.325339,-1.24469,-0.9016163,1.654802,-2.981641,2.567904,-0.1172203,-0.1916136,-0.3692245,-0.5369353,0.8839958,0.0572747,-0.0401457
16.14,0.5698904,-0.2000628,1.352885,-1.250376,-0.8940686,1.665902,-2.940067,2.513215,-0.1102149,-0.2725497,-0.433567,-0.5532557,0.6332986,0.2229415,-0.06740047
16.16,0.4517404,-0.2032474,1.378426,-1.25571,-0.8859557,1.679577,-2.902339,2.418247,-0.1031447,-0.3313673,-0.4900455,0.8498912,-5.3593,0.05986691,-0.05998458
16.18,0.3036826,-0.205082,1.397311,-1.260704,-0.8776926,1.696594,-2.86835,2.356656,-0.09661113,-0.4186659,-0.5368963,1.013544,-0.563009,0.2014749,-0.01339869
16.2,0.3471042,-0.205419,1.413581,-1.264854,-0.8697635,1.717704,-2.839704,2.24198,-0.06936905,-0.537499,-0.5725128,-0.4807924,2.299871,0.8882082,-7.989817e-05
16.22,0.3292613,-0.2058846,1.43049,-1.268403,-0.8625386,1.743028,-2.815108,2.19481,-0.07260454,-0.6685727,-0.5971507,-0.2577269,-3.013586,-1.017628,-0.01854288
16.24,0.2208165,-0.2064612,1.444242,-1.272768,-0.8562535,1.772278,-2.795,2.11355,-0.1019917,-0.7977142,-0.612081,0.8184305,-1.324204,-0.1578569,-0.00452529
16.26,0.1733354,-0.2058218,1.454096,-1.277669,-0.8510641,1.805057,-2.778022,2.08449,-0.09407182,-0.9199821,-0.6178937,0.5667081,-0.5750384,0.4746508,0.03010317
16.28,0.180692,-0.2040371,1.462947,-1.282243,-0.8470147,1.840854,-2.764782,2.005888,-0.08885073,-1.02944,-0.6167026,-0.1194397,0.8693001,-0.2658069,0.04128489
16.3,0.1660443,-0.202399,1.471615,-1.287037,-0.8440457,1.879157,-2.753761,1.984526,-0.10292,-1.123532,-0.611799,-0.5624232,-1.455208,-0.2969628,0.02423831
16.32,0.06216346,-0.2017799,1.47732,-1.292695,-0.8421313,1.919861,-2.745502,1.932984,-0.1233951,-1.214782,-0.605722,-0.3860477,-2.700025,-0.5220408,0.0005265418
16.34,-0.03705981,-0.2020051,1.477948,-1.299333,-0.8412019,1.962791,-2.738934,1.929513,-0.1421372,-1.299706,-0.5989964,-0.01635075,-1.268905,-0.2276446,-0.00953342
16.36,-0.1148076,-0.2024947,1.474151,-1.306627,-0.8410248,2.007259,-2.734163,1.896213,-0.1496373,-1.35905,-0.5923328,-0.004438251,-1.841007,-0.07235823,-0.01005314
16.38,-0.1754691,-0.2026754,1.466895,-1.314121,-0.8412938,2.052385,-2.730366,1.872054,-0.1500892,-1.385429,-0.5863738,0.51953,-0.585452,0.05428275,0.00282415
16.4,-0.2055187,-0.2019116,1.45737,-1.321526,-0.8418086,2.097425,-2.726858,1.855023,-0.1461386,-1.38498,-0.5787613,0.4767522,-0.6165308,0.1037391,0.02773121
16.42,-0.225121,-0.199249,1.446604,-1.328455,-0.8426382,2.141586,-2.722558,1.862803,-0.1310024,-1.361266,-0.5574723,1.5649,-0.1675641,0.5017089,0.07877252
16.44,-0.217951,-0.1945337,1.435527,-1.334354,-0.8438979,2.184008,-2.717046,1.860011,-0.1049548,-1.313021,-0.5201332,-0.3223293,0.454367,0.540195,0.1098368
16.46,-0.1648028,-0.1901212,1.425958,-1.339523,-0.8455072,2.223933,-2.708576,1.916566,-0.1018114,-1.239138,-0.4779862,-1.404578,1.671561,-0.4144581,0.0666641
16.48,-0.09573466,-0.1882409,1.419445,-1.345572,-0.8472983,2.260744,-2.695822,2.016427,-0.1401455,-1.142161,-0.4379113,-0.9201136,1.091163,-1.118907,0.008546806
16.5,-0.01193604,-0.1888974,1.416753,-1.353563,-0.8488972,2.294357,-2.676997,2.202132,-0.1795036,-1.033836,-0.4169804,-0.8139011,2.260782,-0.4554152,-0.03480356
16.52,0.08855913,-0.1907733,1.418669,-1.363152,-0.8498562,2.325208,-2.65327,2.345099,-0.2040642,-0.927566,-0.424778,0.5966572,1.759025,-0.5270097,-0.04023466
16.54,0.09702187,-0.1917196,1.423308,-1.374228,-0.8499778,2.353806,-2.627138,2.381283,-0.2389603,-0.8308263,-0.4484406,1.108005,-1.420515,-0.8688346,0.002381884
16.56,0.08931402,-0.1912305,1.427966,-1.387039,-0.8490497,2.379258,-2.597845,2.420826,-0.2734954,-0.7022167,-0.4643796,-0.5159502,1.112202,-0.5125689,0.01718324
16.58,0.1893972,-0.1910141,1.434934,-1.398977,-0.8465473,2.399167,-2.564573,2.410464,-0.2040008,-0.4915281,-0.4561673,-0.5125048,2.891125,3.292351,-0.008528129
16.6,0.3788707,-0.1916352,1.449141,-1.401567,-0.8421904,2.411226,-2.526448,2.3574,0.1003993,-0.2091853,-0.4052166,0.2009923,4.687814,8.883653,-0.01631594
16.62,0.552859,-0.1924283,1.472434,-1.389164,-0.8363733,2.414738,-2.482361,2.335492,0.3956965,0.07877692,-0.3036709,-0.1646242,2.271721,2.928237,-0.01540674
16.64,0.3381084,-0.1903543,1.494708,-1.368769,-0.8293105,2.412663,-2.432586,2.412448,0.4201093,0.2773504,-0.229617,4.715561,-10.86174,-1.951727,0.09836668
16.66,-0.169753,-0.1793105,1.498917,-1.349959,-0.8208601,2.409191,-2.379906,2.507016,0.3322921,0.3709287,-0.2343988,5.085186,-9.452711,-1.56096,0.3433853
16.68,-0.2376468,-0.1581216,1.488732,-1.333842,-0.8114554,2.405997,-2.327512,2.503869,0.3123716,0.4106217,-0.254211,1.346185,6.736958,0.7641412,0.5041696
16.702,0.2394742,-0.1318803,1.488778,-1.316238,-0.8020426,2.403018,-2.277149,2.41109,0.3918158,0.4191854,-0.2377915,0.3063555,12.34788,2.413626,0.5454831
16.722,0.6237457,-0.1108826,1.510358,-1.295233,-0.7951664,2.4003,-2.228738,2.323607,0.4483522,0.3267441,-0.1431908,-10.34875,3.022974,-0.1521686,0.2944232
16.742,0.5798491,-0.1121122,1.540448,-1.274653,-0.7901018,2.400053,-2.182098,2.323607,0.3748626,0.2091233,-0.1431908,-15.17241,-4.778836,-2.787415,-0.3436059
16.762,0.4068422,-0.1388683,1.565115,-1.264406,-0.7921872,2.400801,-2.135954,2.334207,0.03501651,-0.1013669,0.03600645,-0.1488047,-2.141441,-10.80643,-0.7266363
16.782,0.1005393,-0.1711138,1.5778,-1.270653,-0.8012449,2.401386,-2.089207,2.358701,-0.2849117,-0.3986692,0.216081,6.686842,-10.11067,-1.9907,-0.5631853
16.802,0.1108065,-0.1962362,1.583084,-1.283325,-0.8149195,2.400568,-2.042095,2.326427,-0.2219578,-0.5884628,0.3496762,-1.827886,10.52137,4.508859,-0.4417114
16.822,0.4208598,-0.2182172,1.596375,-1.292968,-0.8311666,2.397886,-1.994495,2.282068,-0.1637463,-0.69311,0.433836,1.995233,1.880766,-2.180401,-0.4375278
16.842,0.2026794,-0.2380741,1.611964,-1.303312,-0.8480769,2.394006,-1.945992,2.28118,-0.2500191,-0.7287781,0.4483072,1.235916,-10.60798,-1.27051,-0.356749
16.862,0.08642885,-0.2562754,1.619191,-1.316714,-0.8640899,2.389735,-1.896503,2.313527,-0.286064,-0.7041354,0.4064579,-1.818035,5.957956,-0.1712858,-0.371302
16.882,0.1673095,-0.2766341,1.625535,-1.330034,-0.8784868,2.384855,-1.845899,2.343945,-0.2467321,-0.6413105,0.3631766,-1.051654,-2.722731,1.744563,-0.4430442
16.902,0.1449319,-0.2986299,1.633341,-1.340529,-0.8909892,2.379011,-1.79423,2.357785,-0.1730795,-0.5602853,0.3337215,1.301879,1.82763,1.201539,-0.4367886
16.922,0.2049392,-0.3199253,1.642088,-1.348187,-0.9015571,2.372959,-1.742622,2.34451,-0.1332404,-0.4811408,0.289105,-0.4314781,0.5726582,0.3920285,-0.4150285
16.942,0.2076525,-0.3405128,1.652402,-1.354609,-0.9105623,2.367868,-1.692131,2.32461,-0.1236156,-0.422618,0.2211553,0.6937395,-0.464124,-0.007038504,-0.408472
16.962,0.1436161,-0.3607602,1.661184,-1.360748,-0.9186694,2.364338,-1.642909,2.321692,-0.1219756,-0.3931698,0.1463655,-0.4118145,-2.097332,0.07264101,-0.4014239
16.982,0.1133126,-0.380906,1.667607,-1.36662,-0.9265049,2.362271,-1.594943,2.316283,-0.1128922,-0.388416,0.08121923,0.2924998,0.8851931,0.2906931,-0.4044067
17.002,0.1452664,-0.4010614,1.674072,-1.372149,-0.9344902,2.361195,-1.548129,2.29795,-0.1082582,-0.3993532,0.03243077,-0.1886806,0.3929584,-0.105331,-0.4018112
17.022,0.1551833,-0.420626,1.681583,-1.377823,-0.9428846,2.360599,-1.502356,2.264961,-0.1186887,-0.42021,-0.001518556,1.030329,0.003718802,-0.3118906,-0.38077
17.042,0.1505262,-0.4387223,1.689226,-1.383999,-0.9518473,2.360008,-1.456914,2.248516,-0.1283841,-0.447952,-0.02363519,0.4771563,-0.1900035,-0.07592726,-0.3430829
17.062,0.1638045,-0.4557026,1.697084,-1.390696,-0.9614475,2.359001,-1.411684,2.220754,-0.139492,-0.4796278,-0.03659052,-0.1989964,0.7211339,-0.3683863,-0.3361289
17.082,0.1673203,-0.4729627,1.705362,-1.397838,-0.9716195,2.357054,-1.36567,2.220967,-0.1461917,-0.5103158,-0.03772992,-0.5267656,-0.5805008,0.1003975,-0.354273
17.102,0.1311716,-0.4914424,1.712825,-1.405009,-0.9820269,2.353459,-1.317749,2.247473,-0.1406141,-0.5297546,-0.02020548,-0.6990442,-0.8654453,0.1227056,-0.3849182
17.122,0.1357328,-0.511179,1.719497,-1.411757,-0.9921897,2.347801,-1.266791,2.312192,-0.1293086,-0.5315816,0.01020719,-0.0860752,1.047891,0.3295173,-0.4045462
17.142,0.1859842,-0.5313843,1.72754,-1.417975,-1.001933,2.340193,-1.213168,2.362127,-0.1194323,-0.5279341,0.03705328,0.1213391,0.9621675,0.06553325,-0.4036646
17.162,0.1813646,-0.5515187,1.736724,-1.424096,-1.01142,2.330945,-1.157638,2.386155,-0.1253897,-0.5326788,0.0507989,-0.04321655,-1.146955,-0.3038297,-0.4017116
17.182,0.1477096,-0.5716854,1.744951,-1.430509,-1.020713,2.320406,-1.100884,2.390263,-0.1311224,-0.5388429,0.05237174,-0.08656057,-0.1992455,0.07452358,-0.404956
17.202,0.1582624,-0.591945,1.7526,-1.436955,-1.029695,2.308968,-1.043541,2.378692,-0.1267251,-0.5365,0.04590051,0.06760926,0.6213588,0.1013658,-0.4054298
17.222,0.1783438,-0.611939,1.761015,-1.443192,-1.038365,2.296838,-0.9860142,2.35555,-0.1227676,-0.5320306,0.03466897,0.3764791,0.1818986,0.05693327,-0.3943276
17.242,0.1663268,-0.6316039,1.769632,-1.44935,-1.046811,2.283979,-0.9282647,2.332571,-0.1235731,-0.5319831,0.0217265,-0.2941781,-0.6625785,-0.0891507,-0.3922701
17.262,0.1437373,-0.6514545,1.777384,-1.455509,-1.054912,2.270523,-0.8703857,2.310471,-0.1227635,-0.5252093,0.009698648,-0.08533396,-0.2410012,0.1215355,-0.4017579
17.282,0.1488078,-0.6714149,1.784697,-1.461408,-1.062428,2.256812,-0.8126398,2.290063,-0.1132083,-0.5042226,9.221491e-05,0.2894294,0.4438203,0.2606723,-0.3966555
17.302,0.1614363,-0.6908784,1.792453,-1.466953,-1.06942,2.242749,-0.7549887,2.267546,-0.1085692,-0.4878031,-0.007495794,0.3014474,0.06132005,-0.07511049,-0.3818836
17.322,0.1606157,-0.7097417,1.800505,-1.472591,-1.076113,2.227837,-0.6969721,2.246157,-0.1169525,-0.4886164,-0.01377982,0.06795328,-0.09414476,-0.2602197,-0.3726485
17.342,0.1597967,-0.7285115,1.808515,-1.478606,-1.082585,2.211694,-0.6381185,2.231458,-0.1236656,-0.499598,-0.01838963,-0.2877079,0.06138675,-0.008307147,-0.3781424
17.362,0.1584766,-0.7478241,1.816472,-1.484811,-1.08876,2.194332,-0.5782147,2.227566,-0.1245424,-0.5087566,-0.02206313,-0.3611188,-0.1141917,-0.02676315,-0.3943631
17.382,0.1479068,-0.7677773,1.824131,-1.490855,-1.094495,2.17604,-0.5173999,2.229533,-0.1171945,-0.5094256,-0.02518064,-0.01498204,-0.3086027,0.3206768,-0.4037656
17.402,0.1607947,-0.7879698,1.831849,-1.496532,-1.099728,2.156889,-0.4557992,2.228262,-0.1099083,-0.5085687,-0.0269922,0.00836025,0.8241194,-0.02922717,-0.4039311
17.422,0.171359,-0.8082198,1.840153,-1.50222,-1.104456,2.136708,-0.3932606,2.22706,-0.1175792,-0.512867,-0.02770901,-0.09392869,-0.4015464,-0.2776103,-0.4060703
17.442,0.1498316,-0.8283503,1.848182,-1.508253,-1.108667,2.115368,-0.3297344,2.222598,-0.1237583,-0.5214511,-0.02798612,0.370812,-0.4595508,0.0304461,-0.3991483
17.462,0.1560935,-0.8478412,1.855831,-1.514312,-1.112328,2.092893,-0.2652699,2.216773,-0.1186163,-0.5310386,-0.02864904,0.3755533,0.7100292,0.175235,-0.3804891
17.482,0.1722737,-0.8664227,1.86404,-1.52011,-1.115403,2.069381,-0.2001188,2.202934,-0.113276,-0.5402598,-0.03000879,0.3330397,-0.06282314,0.03837845,-0.3627743
17.502,0.1673876,-0.8846858,1.872531,-1.52582,-1.117842,2.044944,-0.134128,2.201865,-0.1151464,-0.5490112,-0.03105553,-0.5319598,-0.1326225,-0.1131954,-0.3677473
17.522,0.1504837,-0.9037055,1.880478,-1.531702,-1.119515,2.019765,-0.06718874,2.214881,-0.1201297,-0.5557442,-0.02797375,-0.4796917,-0.5435304,-0.08613484,-0.3930386
17.542,0.1343107,-0.9238333,1.887598,-1.537612,-1.120253,1.994588,0.0002829293,2.240917,-0.1162644,-0.5496502,-0.01856589,-0.2817062,-0.1033892,0.2407471,-0.4120735
17.562,0.1465472,-0.9444748,1.894619,-1.543143,-1.12025,1.969335,0.06782723,2.240917,-0.1049891,-0.5496502,-0.01856589,0.2211269,0.5928454,0.210265,-0.413588
17.582,0.1704804,-0.9646953,1.902545,-1.548426,-1.11939,1.945299,0.1345801,2.256394,-0.1063353,-0.5255741,-0.01015489,0.513189,0.3644829,-0.264115,-0.3952301
17.602,0.175105,-0.9840261,1.911185,-1.554082,-1.117889,1.922512,0.2010079,2.296955,-0.1199045,-0.5034562,-0.009110168,0.1757632,-0.1794967,-0.2786538,-0.3780063
17.622,0.161323,-1.002753,1.919595,-1.560126,-1.115858,1.900813,0.2674579,2.347795,-0.1218482,-0.4864642,-0.01166626,0.1023629,-0.3717832,0.2009046,-0.3710532
17.642,0.1523188,-1.021281,1.927436,-1.565974,-1.113454,1.881004,0.3341918,2.447981,-0.1120432,-0.4524492,-0.01446569,-0.06322255,0.01161509,0.1912997,-0.3700747
17.662,0.1574747,-1.039985,1.935181,-1.571401,-1.110825,1.863572,0.3992329,2.471064,-0.105044,-0.4074645,-0.01568671,-0.2567446,0.1946204,0.08866787,-0.3780738
17.682,0.1579809,-1.059321,1.943068,-1.576642,-1.107849,1.847842,0.4638447,2.526887,-0.1046114,-0.3804575,-0.01128655,-0.436171,-0.1743744,-0.07136724,-0.3953967
17.702,0.1529227,-1.079376,1.95084,-1.582039,-1.104279,1.832853,0.5280928,2.542976,-0.1112747,-0.3804855,-0.002862509,-0.01910167,-0.02795289,-0.1951632,-0.4067785
17.722,0.161287,-1.099743,1.958695,-1.587727,-1.099983,1.817984,0.5918729,2.526231,-0.1162206,-0.3987617,0.003619522,-0.02541738,0.3625275,-0.002671312,-0.4078915
17.742,0.1681209,-1.120119,1.966931,-1.593615,-1.094902,1.802982,0.6549813,2.488332,-0.1193027,-0.4260501,0.006614062,0.05410105,-0.08917395,-0.1206127,-0.4071744
17.762,0.1594563,-1.140436,1.97512,-1.599623,-1.089089,1.788041,0.7170888,2.442803,-0.1210123,-0.4505617,0.006852592,0.01334903,-0.25741,0.05222726,-0.4054882
17.782,0.1544662,-1.160726,1.982968,-1.605567,-1.082686,1.773521,0.7778315,2.395291,-0.1167739,-0.4659619,0.004776266,-0.03904645,0.05780459,0.1173086,-0.4061306
17.802,0.1618945,-1.181044,1.990877,-1.611369,-1.075722,1.759488,0.8376366,2.372125,-0.1153111,-0.4807062,0.001300464,0.02097568,0.2393298,-0.0587941,-0.4065824
17.822,0.164987,-1.201306,1.999049,-1.617248,-1.068144,1.74589,0.8960838,2.32573,-0.1198167,-0.4994721,-0.002764049,0.08742113,-0.1156305,-0.1214327,-0.4038724
17.842,0.1657542,-1.221484,2.007318,-1.623467,-1.059945,1.732797,0.9531981,2.283748,-0.1289552,-0.5187504,-0.006838328,-0.06258026,0.1463165,-0.244107,-0.4032515
17.862,0.176483,-1.241856,2.015874,-1.63012,-1.051099,1.72025,1.009591,2.274078,-0.1371695,-0.5396483,-0.01115004,-0.2733021,0.2828357,-0.08446499,-0.4116485
17.882,0.1753408,-1.263022,2.024669,-1.637168,-1.04152,1.708124,1.065182,2.255181,-0.1447408,-0.5669374,-0.01787829,-0.6602592,-0.328522,-0.2183846,-0.4349875
17.902,0.1502146,-1.285281,2.032808,-1.644954,-1.031174,1.696255,1.120597,2.260445,-0.1667043,-0.5985267,-0.03051234,-0.1555387,-0.6765275,-0.6601577,-0.4553825
17.922,0.1869129,-1.307701,2.041236,-1.654998,-1.020245,1.684823,1.175387,2.251074,-0.2350462,-0.62009,-0.04608999,0.7150345,2.144461,-2.073519,-0.4413951
17.942,0.2965687,-1.329072,2.053323,-1.667136,-1.008983,1.674294,1.229392,2.25353,-0.250509,-0.6255515,-0.05652349,0.4024314,2.241768,1.45501,-0.4134584
17.962,0.2884063,-1.350558,2.067948,-1.678415,-0.9974797,1.66511,1.283045,2.295855,-0.2006192,-0.6235071,-0.05676627,-1.703291,-2.568264,0.5405807,-0.44598
17.982,0.2108779,-1.374469,2.08043,-1.688323,-0.9857868,1.657576,1.336708,2.368333,-0.195705,-0.6182118,-0.04840564,-0.8754766,-0.5328709,-0.3440143,-0.5104492
18.002,0.2046851,-1.4,2.090819,-1.69723,-0.9740496,1.651623,1.390037,2.41971,-0.1605818,-0.6086171,-0.04140727,0.8611241,0.2851599,1.748944,-0.510808
18.022,0.2029165,-1.424111,2.101009,-1.704236,-0.962506,1.646751,1.442453,2.420557,-0.1196659,-0.5917361,-0.04757796,1.426815,-0.3559034,-0.1123087,-0.4536095
18.042,0.254827,-1.445637,2.112453,-1.710206,-0.951563,1.642233,1.494275,2.40689,-0.1191446,-0.557754,-0.07349055,0.4202494,2.432321,0.1331616,-0.4074329
18.062,0.2704067,-1.465937,2.125583,-1.71658,-0.9416818,1.637631,1.545649,2.382413,-0.1357908,-0.5004101,-0.1092522,-0.306671,-1.809135,-0.7990112,-0.4045934
18.082,0.1444817,-1.486429,2.135956,-1.723735,-0.9330168,1.633093,1.596686,2.369461,-0.1504317,-0.4333172,-0.1344959,-0.1132716,-3.227866,0.2133748,-0.415092
18.102,0.1170729,-1.50753,2.142494,-1.730088,-0.9254275,1.628969,1.647214,2.36165,-0.1036745,-0.3727532,-0.1426818,-0.4396735,2.131514,1.656913,-0.4289156
18.122,0.1760849,-1.52885,2.149823,-1.734013,-0.9185009,1.625338,1.697038,2.346934,-0.05333819,-0.3335571,-0.1442077,0.6402311,0.2289679,0.3565406,-0.4239017
18.142,0.1574017,-1.549217,2.158161,-1.737132,-0.911277,1.621923,1.746433,2.334868,-0.07141361,-0.341517,-0.1573091,0.6841445,-0.9762953,-1.079557,-0.3907923
18.162,0.1424326,-1.568055,2.165657,-1.741752,-0.9030381,1.618349,1.795201,2.298048,-0.1133752,-0.3819728,-0.1897908,0.4390369,0.3775285,-0.5989055,-0.3627127
18.182,0.1584285,-1.585884,2.173178,-1.747987,-0.8937727,1.614529,1.84368,2.274884,-0.1360242,-0.419852,-0.2294075,0.05205971,0.2623082,-0.3070562,-0.3504353
18.202,0.1605116,-1.603384,2.181152,-1.755301,-0.883652,1.610738,1.891212,2.229797,-0.156536,-0.4491184,-0.2622543,-0.01740293,-0.1789857,-0.5134149,-0.3495689
18.222,0.1484449,-1.620884,2.188875,-1.763739,-0.8729741,1.607254,1.938172,2.214359,-0.1809862,-0.4652575,-0.2847583,-0.01685286,-0.3036813,-0.4645931,-0.3504253
18.242,0.1434136,-1.638414,2.196172,-1.77285,-0.8619797,1.604451,1.984553,2.212485,-0.1834761,-0.4739202,-0.2931917,0.00270019,0.1024318,0.3649977,-0.3507791
18.262,0.1597441,-1.656166,2.203751,-1.781173,-0.8508758,1.602706,2.030935,2.253575,-0.1494538,-0.4789891,-0.2868072,-0.3435934,0.5507865,0.9958937,-0.3593014
18.282,0.1693636,-1.674381,2.211978,-1.7879,-0.8397791,1.60196,2.077461,2.29878,-0.1196219,-0.4798723,-0.2798799,-0.05589609,-0.1660045,0.1973832,-0.3692887
18.302,0.1533791,-1.692673,2.220047,-1.793704,-0.8285564,1.601975,2.12374,2.314911,-0.1125273,-0.4846093,-0.2832076,0.3315522,-0.4733766,0.08639821,-0.3623973
18.324,0.1616707,-1.710352,2.227923,-1.799445,-0.8170146,1.602764,2.169517,2.318172,-0.1171114,-0.4987763,-0.2918235,0.3734796,0.8050411,-0.2697607,-0.3447715
18.344,0.1604432,-1.727335,2.235976,-1.805751,-0.8050119,1.604765,2.214326,2.313434,-0.1351292,-0.5282957,-0.2932842,0.0349714,-0.8541428,-0.4509501,-0.3345602
18.364,0.117736,-1.74402,2.24293,-1.813071,-0.7930828,1.607506,2.258622,2.313434,-0.1576767,-0.5282957,-0.2932842,0.0349714,-0.8541428,-0.4509501,-0.3328116
18.384,0.1053523,-1.761266,2.248508,-1.820923,-0.7808428,1.612005,2.301505,2.303806,-0.1564012,-0.5679755,-0.2781698,-1.004975,0.3587918,0.5019695,-0.3570617
18.404,0.1157639,-1.779998,2.254036,-1.828353,-0.7685773,1.618392,2.343276,2.31244,-0.1407931,-0.6040728,-0.2520485,-0.4002817,0.05767149,0.1223559,-0.3921932
18.424,0.1100372,-1.799668,2.259681,-1.835542,-0.7564688,1.626367,2.383763,2.300178,-0.1467742,-0.6305033,-0.228899,0.3028828,-0.2867372,-0.3616013,-0.3946281
18.444,0.1232416,-1.818703,2.265513,-1.843059,-0.7445641,1.635448,2.423535,2.298664,-0.1539117,-0.6462886,-0.2170619,0.8111226,0.8149126,0.0761005,-0.366778
18.504,0.1833848,-1.866396,2.289,-1.864514,-0.7107942,1.667959,2.537026,2.228323,-0.1401553,-0.6837849,-0.1797411,-0.7903847,0.8487465,-0.5768387,-0.3394756
18.524,0.1646593,-1.884026,2.297701,-1.872352,-0.7001113,1.681444,2.572991,2.235767,-0.173357,-0.7233568,-0.1607575,-0.2601218,-1.597767,-0.7512295,-0.3657383
18.544,0.1385088,-1.902958,2.30528,-1.881282,-0.6897356,1.696439,2.607909,2.226365,-0.1838759,-0.7624722,-0.1404222,-0.7720013,0.5517482,0.3304695,-0.3915414
18.564,0.2179573,-1.922349,2.314191,-1.890154,-0.6799416,1.712215,2.641861,2.196908,-0.1709832,-0.773281,-0.1239903,1.069921,2.626192,0.1852389,-0.3840934
18.584,0.2450509,-1.940528,2.325767,-1.89869,-0.6708893,1.727768,2.675254,2.156193,-0.1704784,-0.747893,-0.1189598,0.5706306,-1.542451,-0.1650458,-0.3430796
18.604,0.1775301,-1.957373,2.336331,-1.907117,-0.6624695,1.742858,2.709073,2.157902,-0.166567,-0.7171457,-0.121587,-0.07487026,-1.158382,0.3215039,-0.3306856
18.624,0.1146116,-1.974719,2.343635,-1.915117,-0.6545215,1.757721,2.742973,2.150062,-0.153467,-0.6983447,-0.1263092,-1.224227,-1.358356,0.2024934,-0.363163
18.644,0.08153761,-1.993758,2.348538,-1.922759,-0.6469516,1.772415,2.777854,2.189496,-0.1521961,-0.6835749,-0.133894,-0.1857884,0.03539703,-0.1516565,-0.3984134
18.664,0.04233807,-2.013294,2.351635,-1.930463,-0.6396442,1.787077,2.814014,2.248116,-0.1559671,-0.6758275,-0.1450726,0.8026195,-1.603379,0.0008164033,-0.3829926
18.684,0.0662321,-2.03209,2.354349,-1.938095,-0.6326116,1.801945,2.851023,2.292507,-0.1492931,-0.676836,-0.1530866,-0.238062,2.55914,0.2661459,-0.3688787
18.704,0.1486194,-2.050631,2.359721,-1.945319,-0.6260259,1.817175,2.887913,2.293129,-0.1396883,-0.6816344,-0.1517429,0.08296594,0.7363511,0.1180465,-0.3727561
18.724,0.1279571,-2.069214,2.366635,-1.952266,-0.620064,1.83281,2.924226,2.272184,-0.1381873,-0.6870736,-0.1417613,0.005324911,-1.562843,-0.05800803,-0.3705488
18.744,0.1323216,-2.087738,2.373142,-1.959094,-0.6148705,1.848786,2.959733,2.23823,-0.1349277,-0.690048,-0.1253964,-0.0005852189,1.737424,0.1883905,-0.3704303
18.764,0.1678487,-2.10637,2.380646,-1.965661,-0.6104644,1.864994,2.994294,2.19444,-0.1277582,-0.6902986,-0.1087231,-0.1767287,-0.3163405,0.09839207,-0.3748632
18.784,0.1346756,-2.124712,2.388209,-1.971836,-0.6067085,1.881258,3.028265,2.163811,-0.1192237,-0.6861188,-0.09952515,0.8199946,-1.010586,0.2429875,-0.3587815
18.804,0.1047642,-2.142702,2.394195,-1.97715,-0.6035109,1.897406,3.062453,2.169061,-0.09334966,-0.6765177,-0.09535018,-0.9021484,-0.1858685,0.7919729,-0.3608354
18.824,0.1072756,-2.162118,2.399496,-1.981246,-0.6009258,1.913326,3.096916,2.174369,-0.07047233,-0.6628475,-0.08844791,-1.297086,0.2863227,0.1231202,-0.4158163
18.884,0.09908207,-2.225801,2.414641,-1.991805,-0.5959809,1.96127,-3.080627,2.196725,-0.07492309,-0.6748201,-0.09941519,1.408585,-0.3651817,-0.384264,-0.3832171
18.904,0.07269305,-2.24354,2.418936,-1.995809,-0.5946119,1.978484,-3.046836,2.172543,-0.08526428,-0.7053271,-0.1236996,0.8668472,-0.6903791,-0.02938391,-0.3263313
18.924,0.04571126,-2.259161,2.421896,-1.999894,-0.5933249,1.996316,-3.012997,2.191309,-0.07812103,-0.7273316,-0.1463338,0.2452707,-0.3888925,0.3151141,-0.2985284
18.944,0.03113349,-2.274008,2.423817,-2.003299,-0.5923903,2.014304,-2.977382,2.283706,-0.05809391,-0.7313118,-0.1550882,-0.1173009,-0.1942182,0.4859709,-0.2953291
18.964,0.04894283,-2.288556,2.425819,-2.005594,-0.5921321,2.032061,-2.940833,2.323514,-0.03369562,-0.7222779,-0.146411,0.4659104,0.9065917,0.4899604,-0.2866139
18.984,0.07864761,-2.302496,2.429009,-2.00702,-0.5927842,2.049402,-2.902403,2.40612,-0.0233378,-0.7092795,-0.125176,0.1592712,0.2815996,-0.0756473,-0.2709844
19.004,0.05122707,-2.314366,2.432256,-2.007973,-0.5944424,2.066118,-2.862119,2.482223,-0.0147777,-0.6911036,-0.0975439,2.528175,-1.378421,0.4180512,-0.2037982
19.024,0.04820487,-2.324098,2.434741,-2.007736,-0.5971645,2.08176,-2.819454,2.572696,0.02424991,-0.6588422,-0.06183841,-1.795422,1.257534,1.143053,-0.1854794
19.084,0.04489455,-2.363417,2.445088,-2.001903,-0.6142365,2.121008,-2.675757,2.810395,0.002523225,-0.61212,0.1246172,-0.1917504,0.6207537,-1.160886,-0.2868819
19.104,0.09055435,-2.377282,2.448475,-2.003115,-0.6238589,2.1325,-2.626456,2.799214,-0.05097688,-0.639666,0.2040494,0.9595386,1.205638,-0.9791182,-0.2676872
19.164,0.1061343,-2.422903,2.468004,-2.019715,-0.6644062,2.152915,-2.476791,2.64937,-0.1499691,-0.5858128,0.5184273,-1.357655,-1.557908,0.2616498,-0.3706409
19.184,0.06478722,-2.442271,2.472277,-2.026814,-0.6798399,2.155996,-2.425734,2.64937,-0.1339882,-0.5845757,0.5184273,0.01899929,-0.09597405,0.3775844,-0.4041073
19.204,0.09575522,-2.462434,2.47629,-2.03345,-0.6966508,2.156738,-2.374441,2.588806,-0.131478,-0.5890326,0.6007296,0.04937344,1.334695,-0.2771747,-0.402398
19.224,0.1357148,-2.481749,2.482077,-2.040636,-0.7142826,2.15595,-2.32379,2.507525,-0.1559311,-0.6069188,0.6405229,1.238453,0.2636897,-0.7009523,-0.3702024
19.244,0.1235793,-2.49972,2.488559,-2.048626,-0.7321729,2.15411,-2.272939,2.482152,-0.1636807,-0.6223722,0.6466197,-0.3759181,-0.7491097,0.39097,-0.348639
19.264,0.1137112,-2.518021,2.494492,-2.056132,-0.7496964,2.151036,-2.222722,2.407609,-0.1365453,-0.6120878,0.6374897,-1.015238,0.3543835,0.6944471,-0.3834179
19.284,0.1062957,-2.537679,2.499992,-2.062458,-0.7663539,2.146456,-2.172506,2.353801,-0.11652,-0.5771658,0.6234208,0.2369441,-0.6510044,0.106562,-0.4028752
19.304,0.08361401,-2.557781,2.50474,-2.068074,-0.7821372,2.140537,-2.121452,2.346157,-0.108115,-0.5466143,0.607582,-0.1704089,-0.2562616,0.2296408,-0.4012118
19.324,0.1015199,-2.577915,2.509368,-2.073682,-0.7970943,2.133543,-2.070474,2.300994,-0.1161932,-0.5237727,0.5881663,0.05326859,0.9724976,-0.5527685,-0.4041404
19.344,0.1222368,-2.598499,2.514962,-2.079993,-0.8110802,2.125639,-2.01941,2.268987,-0.1362522,-0.4971244,0.5633399,-0.6561985,-0.1438233,-0.2495945,-0.4192136
19.364,0.1095062,-2.620527,2.520756,-2.086951,-0.8241426,2.116694,-1.967414,2.273896,-0.1420882,-0.4703083,0.5470201,-1.051709,-0.3653989,0.01615649,-0.4619113
19.384,0.09114504,-2.643389,2.525772,-2.092652,-0.836279,2.106009,-1.913513,2.301114,-0.08593113,-0.4356942,0.5555389,1.424522,-0.3690483,2.230125,-0.452591
19.404,0.06134165,-2.665941,2.529584,-2.096552,-0.8476833,2.093468,-1.857267,2.344962,-0.07005558,-0.4131281,0.5737181,-1.298974,-0.8230872,-1.595103,-0.4494523
19.424,0.04413142,-2.688643,2.532221,-2.101725,-0.8590172,2.080074,-1.799858,2.366267,-0.1368905,-0.4358393,0.5703841,0.9309095,0.1346779,-1.078295,-0.4586539
19.444,0.08741557,-2.711105,2.53551,-2.109601,-0.8707103,2.066661,-1.74187,2.389537,-0.1781259,-0.4866556,0.5427516,-0.176889,1.596688,-0.5711177,-0.4398034
19.464,0.1149351,-2.733886,2.540568,-2.119354,-0.8825797,2.053371,-1.682861,2.440161,-0.2120112,-0.5277099,0.5047512,-1.088346,-0.4959053,-0.7842957,-0.4714343
19.484,0.09801969,-2.757565,2.545892,-2.129228,-0.8939984,2.040344,-1.623123,2.481922,-0.1829473,-0.5354435,0.4564622,0.9167069,-0.1807132,1.946849,-0.4757252
19.504,0.1114604,-2.781276,2.551129,-2.136571,-0.9043177,2.028085,-1.563731,2.490297,-0.1107774,-0.5073599,0.3931183,-0.7968774,0.7183408,0.9399499,-0.4727295
19.524,0.1167979,-2.804663,2.556836,-2.141189,-0.9132353,2.017379,-1.505943,2.467703,-0.07392044,-0.4575644,0.312912,1.195622,-0.5048386,0.5343277,-0.4627609
19.544,0.1207033,-2.826731,2.562773,-2.145163,-0.9209454,2.008855,-1.450716,2.423469,-0.08506933,-0.4079077,0.2225691,0.5162398,0.6610551,-0.9802834,-0.4199644
19.564,0.1291787,-2.847249,2.569021,-2.150345,-0.9281719,2.002142,-1.397606,2.387985,-0.122192,-0.3870919,0.1472068,0.253187,-0.3220416,-0.5046255,-0.4007287
19.584,0.1375518,-2.867263,2.575689,-2.157264,-0.9355572,1.995829,-1.345649,2.344869,-0.1545917,-0.3993173,0.1114877,-0.2183586,0.6569662,-0.7913592,-0.399858
19.604,0.1336417,-2.887362,2.582469,-2.165585,-0.9430258,1.988464,-1.293356,2.317821,-0.1782324,-0.41587,0.1177495,0.04874197,-0.8133689,-0.1542702,-0.4040984
19.624,0.1061844,-2.908331,2.588464,-2.174196,-0.9501883,1.979294,-1.239826,2.304879,-0.1662155,-0.4220541,0.1484225,-1.271442,-0.2849254,0.6349449,-0.4346659
